,Code,GeoFips,TimePeriod,CL_UNIT,UNIT_MULT,DataValue,City,State_id,Zip,Latitude,Longitude,Timezone,Daylight savings time flag,geopoint
8,CAINC1-1,01013,2018,Thousands of dollars,3,"722,093",Butler,AL,36904,32.097363,-88.22646999999999,-6,1,32.097363
18,CAINC1-1,01019,2018,Thousands of dollars,3,"937,468",Cherokee,AL,35616,34.748498,-87.9986,-6,1,34.748498
28,CAINC1-1,01027,2018,Thousands of dollars,3,"446,853",Clay,AL,35048,33.544622,-86.929208,-6,1,33.544622
62,CAINC1-1,01043,2018,Thousands of dollars,3,"3,338,067",Cullman,AL,35055,34.167893,-86.82506,-6,1,34.167893
78,CAINC1-1,01051,2018,Thousands of dollars,3,"3,459,535",Elmore,AL,36025,32.538878000000004,-86.33358,-6,1,32.538878000000004
88,CAINC1-1,01057,2018,Thousands of dollars,3,"576,254",Fayette,AL,35555,33.681768,-87.83026,-6,1,33.681768
98,CAINC1-1,01059,2018,Thousands of dollars,3,"1,086,487",Franklin,AL,36444,31.63857,-87.46772,-6,1,31.63857
108,CAINC1-1,01061,2018,Thousands of dollars,3,"934,529",Geneva,AL,36340,31.043453999999997,-85.87941,-6,1,31.043453999999997
118,CAINC1-1,01069,2018,Thousands of dollars,3,"4,527,737",Houston,AL,35572,34.166779999999996,-87.26526,-6,1,34.166779999999996
128,CAINC1-1,01071,2018,Thousands of dollars,3,"1,918,362",Jackson,AL,36545,31.508231,-87.88346,-6,1,31.508231
138,CAINC1-1,01073,2018,Thousands of dollars,3,"36,644,708",Jefferson,AL,36745,32.414035999999996,-87.898611,-6,1,32.414035999999996
164,CAINC1-1,01089,2018,Thousands of dollars,3,"19,088,069",Madison,AL,35758,34.715065,-86.73964000000001,-6,1,34.715065
178,CAINC1-1,01093,2018,Thousands of dollars,3,"987,373",Marion,AL,36756,32.665966,-87.33889,-6,1,32.665966
524,CAINC1-1,01097,2018,Thousands of dollars,3,"16,056,031",Mobile,AL,36689,30.658865000000002,-88.177975,-6,1,30.658865000000002
890,CAINC1-1,01101,2018,Thousands of dollars,3,"9,959,136",Montgomery,AL,36134,32.233377000000004,-86.208528,-6,1,32.233377000000004
968,CAINC1-1,01111,2018,Thousands of dollars,3,"760,016",Randolph,AL,36792,32.917983,-86.89046,-6,1,32.917983
978,CAINC1-1,01117,2018,Thousands of dollars,3,"11,849,115",Shelby,AL,35143,33.080971000000005,-86.53875,-6,1,33.080971000000005
996,CAINC1-1,01121,2018,Thousands of dollars,3,"2,781,484",Talladega,AL,35161,33.420206,-86.10278199999999,-6,1,33.420206
1080,CAINC1-1,01125,2018,Thousands of dollars,3,"8,194,080",Tuscaloosa,AL,35401,33.193818,-87.56843,-6,1,33.193818
1108,CAINC1-1,04003,2018,Thousands of dollars,3,"5,045,137",Cochise,AZ,85606,32.054694,-109.81342,-7,0,32.054694
1118,CAINC1-1,04013,2018,Thousands of dollars,3,"211,812,685",Maricopa,AZ,85239,32.989261,-112.11505,-7,0,32.989261
1128,CAINC1-1,04017,2018,Thousands of dollars,3,"3,541,598",Navajo,AZ,87328,35.923348,-109.08296000000001,-7,0,35.923348
1138,CAINC1-1,04019,2018,Thousands of dollars,3,"45,623,879",Pima,AZ,85543,32.90375,-109.84995,-7,0,32.90375
1180,CAINC1-1,04027,2018,Thousands of dollars,3,"7,408,956",Yuma,AZ,85367,32.654701,-114.40883999999998,-7,0,32.654701
1214,CAINC1-1,05007,2018,Thousands of dollars,3,"25,141,681",Benton,AR,72018,34.597345000000004,-92.622857,-6,1,34.597345000000004
1228,CAINC1-1,05011,2018,Thousands of dollars,3,"421,157",Bradley,AR,71826,33.102083,-93.67371999999999,-6,1,33.102083
1238,CAINC1-1,05025,2018,Thousands of dollars,3,"324,555",Cleveland,AR,72030,35.423473,-92.67942,-6,1,35.423473
1272,CAINC1-1,05029,2018,Thousands of dollars,3,"795,800",Conway,AR,72035,35.105306,-92.354915,-6,1,35.105306
1288,CAINC1-1,05041,2018,Thousands of dollars,3,"439,005",Desha,AR,72527,35.733939,-91.68913,-6,1,35.733939
1298,CAINC1-1,05047,2018,Thousands of dollars,3,"589,946",Franklin,AR,72536,36.155896999999996,-91.75644,-6,1,36.155896999999996
1308,CAINC1-1,05049,2018,Thousands of dollars,3,"344,688",Fulton,AR,71838,33.638783000000004,-93.80828000000001,-6,1,33.638783000000004
1318,CAINC1-1,05069,2018,Thousands of dollars,3,"2,384,681",Jefferson,AR,72079,34.401717,-92.20272,-6,1,34.401717
1328,CAINC1-1,05071,2018,Thousands of dollars,3,"766,069",Johnson,AR,72741,35.99403,-94.219977,-6,1,35.99403
1338,CAINC1-1,05079,2018,Thousands of dollars,3,"357,729",Lincoln,AR,72744,35.954696999999996,-94.42735,-6,1,35.954696999999996
1348,CAINC1-1,05085,2018,Thousands of dollars,3,"2,885,419",Lonoke,AR,72086,34.7964,-91.90949,-6,1,34.7964
1358,CAINC1-1,05087,2018,Thousands of dollars,3,"574,043",Madison,AR,72359,35.013692999999996,-90.72317,-6,1,35.013692999999996
1368,CAINC1-1,05089,2018,Thousands of dollars,3,"506,995",Marion,AR,72364,35.200501,-90.20234,-6,1,35.200501
1378,CAINC1-1,05095,2018,Thousands of dollars,3,"230,576",Monroe,AR,72108,34.726737,-91.10958000000001,-6,1,34.726737
1388,CAINC1-1,05105,2018,Thousands of dollars,3,"366,749",Perry,AR,72125,35.056424,-92.79432,-6,1,35.056424
1398,CAINC1-1,05127,2018,Thousands of dollars,3,"325,140",Scott,AR,72142,34.689349,-92.07791999999999,-6,1,34.689349
1424,CAINC1-1,05129,2018,Thousands of dollars,3,"215,037",Searcy,AR,72143,35.239022,-91.73776,-6,1,35.239022
1446,CAINC1-1,05141,2018,Thousands of dollars,3,"505,582",Van Buren,AR,72956,35.456536,-94.34581,-6,1,35.456536
1458,CAINC1-1,05143,2018,Thousands of dollars,3,"9,427,459",Washington,AR,71862,33.761309000000004,-93.71273000000001,-6,1,33.761309000000004
1476,CAINC1-1,06001,2018,Thousands of dollars,3,"128,728,021",Alameda,CA,94502,37.734379,-122.23952,-8,1,37.734379
1496,CAINC1-1,06003,2018,Thousands of dollars,3,"78,472",Alpine,CA,91901,32.823102,-116.73863999999999,-8,1,32.823102
1508,CAINC1-1,06011,2018,Thousands of dollars,3,"1,070,094",Colusa,CA,95932,39.254875,-122.04571999999999,-8,1,39.254875
1518,CAINC1-1,06017,2018,Thousands of dollars,3,"12,820,940",El Dorado,CA,95623,38.639643,-120.84556,-8,1,38.639643
2000,CAINC1-1,06019,2018,Thousands of dollars,3,"43,088,095",Fresno,CA,93702,36.741199,-119.7553,-8,1,36.741199
2128,CAINC1-1,06021,2018,Thousands of dollars,3,"1,317,914",Glenn,CA,95943,39.605289,-122.03231000000001,-8,1,39.605289
2138,CAINC1-1,06025,2018,Thousands of dollars,3,"6,822,928",Imperial,CA,92251,32.853471,-115.58941999999999,-8,1,32.853471
2948,CAINC1-1,06037,2018,Thousands of dollars,3,"627,608,360",Los Angeles,CA,90081,33.786594,-118.29866200000001,-8,1,33.786594
3174,CAINC1-1,06039,2018,Thousands of dollars,3,"6,133,070",Madera,CA,93637,36.914819,-120.15817,-8,1,36.914819
3188,CAINC1-1,06043,2018,Thousands of dollars,3,"929,389",Mariposa,CA,95338,37.505484,-119.92527,-8,1,37.505484
3198,CAINC1-1,06045,2018,Thousands of dollars,3,"4,411,856",Mendocino,CA,95460,39.311858,-123.79166000000001,-8,1,39.311858
3240,CAINC1-1,06047,2018,Thousands of dollars,3,"10,696,798",Merced,CA,95344,37.378234,-120.61780800000001,-8,1,37.378234
3282,CAINC1-1,06053,2018,Thousands of dollars,3,"24,576,499",Monterey,CA,93944,36.606225,-121.908915,-8,1,36.606225
3314,CAINC1-1,06055,2018,Thousands of dollars,3,"9,998,840",Napa,CA,94558,38.337243,-122.30027,-8,1,38.337243
3408,CAINC1-1,06059,2018,Thousands of dollars,3,"218,878,441",Orange,CA,92863,33.640302,-117.769442,-8,1,33.640302
3566,CAINC1-1,06065,2018,Thousands of dollars,3,"99,266,122",Riverside,CA,92516,33.752886,-116.055617,-8,1,33.752886
4440,CAINC1-1,06067,2018,Thousands of dollars,3,"81,589,289",Sacramento,CA,95873,38.377410999999995,-121.444429,-8,1,38.377410999999995
4810,CAINC1-1,06071,2018,Thousands of dollars,3,"86,995,697",San Bernardino,CA,92404,34.148559999999996,-117.26298,-8,1,34.148559999999996
5498,CAINC1-1,06073,2018,Thousands of dollars,3,"203,855,654",San Diego,CA,92164,33.016928,-116.846046,-8,1,33.016928
6228,CAINC1-1,06075,2018,Thousands of dollars,3,"117,419,004",San Francisco,CA,94154,37.784827,-122.727802,-8,1,37.784827
6378,CAINC1-1,06077,2018,Thousands of dollars,3,"33,634,157",San Joaquin,CA,93660,36.600172,-120.15338,-8,1,36.600172
6444,CAINC1-1,06079,2018,Thousands of dollars,3,"16,465,164",San Luis Obispo,CA,93406,35.347065,-120.455345,-8,1,35.347065
6540,CAINC1-1,06081,2018,Thousands of dollars,3,"98,568,258",San Mateo,CA,94402,37.551586,-122.32773,-8,1,37.551586
6696,CAINC1-1,06083,2018,Thousands of dollars,3,"28,224,056",Santa Barbara,CA,93130,34.262834000000005,-119.848555,-8,1,34.262834000000005
6786,CAINC1-1,06085,2018,Thousands of dollars,3,"213,221,976",Santa Clara,CA,95054,37.393240000000006,-121.96066,-8,1,37.393240000000006
6848,CAINC1-1,06087,2018,Thousands of dollars,3,"18,697,119",Santa Cruz,CA,95064,37.000199,-122.06026000000001,-8,1,37.000199
6868,CAINC1-1,06089,2018,Thousands of dollars,3,"8,372,513",Shasta,CA,96087,40.608728,-122.51427,-8,1,40.608728
6878,CAINC1-1,06097,2018,Thousands of dollars,3,"31,612,355",Sonoma,CA,95476,38.277147,-122.47058,-8,1,38.277147
6888,CAINC1-1,06101,2018,Thousands of dollars,3,"4,371,932",Sutter,CA,95982,39.16855,-121.76465,-8,1,39.16855
6898,CAINC1-1,06103,2018,Thousands of dollars,3,"2,654,778",Tehama,CA,96090,40.024337,-122.12378000000001,-8,1,40.024337
6916,CAINC1-1,06107,2018,Thousands of dollars,3,"18,679,327",Tulare,CA,93275,36.26699,-118.776902,-8,1,36.26699
6928,CAINC1-1,06109,2018,Thousands of dollars,3,"2,560,943",Tuolumne,CA,95379,37.957978000000004,-120.2297,-8,1,37.957978000000004
6994,CAINC1-1,06111,2018,Thousands of dollars,3,"52,500,391",Ventura,CA,93002,34.032383,-119.1343,-8,1,34.032383
7018,CAINC1-1,06113,2018,Thousands of dollars,3,"11,821,166",Yolo,CA,95697,38.751038,-121.83215600000001,-8,1,38.751038
7036,CAINC1-1,08003,2018,Thousands of dollars,3,"620,071",Alamosa,CO,81102,37.476026,-105.88177900000001,-7,1,37.476026
7048,CAINC1-1,08005,2018,Thousands of dollars,3,"40,350,053",Arapahoe,CO,80802,38.834807,-102.1746,-7,1,38.834807
7178,CAINC1-1,08013,2018,Thousands of dollars,3,"23,866,572",Boulder,CO,80303,39.989135,-105.22883,-7,1,39.989135
7234,CAINC1-1,08014,2018,Thousands of dollars,3,"4,716,665",Broomfield,CO,80021,39.881608,-105.09953,-7,1,39.881608
7248,CAINC1-1,08021,2018,Thousands of dollars,3,"302,103",Conejos,CO,81129,37.101134,-106.02648,-7,1,37.101134
7266,CAINC1-1,08025,2018,Thousands of dollars,3,"119,757",Crowley,CO,81033,38.193627,-103.85543,-7,1,38.193627
7278,CAINC1-1,08029,2018,Thousands of dollars,3,"1,180,966",Delta,CO,81416,38.733901,-108.08219,-7,1,38.733901
7880,CAINC1-1,08031,2018,Thousands of dollars,3,"56,601,673",Denver,CO,80223,39.699156,-104.99999,-7,1,39.699156
8038,CAINC1-1,08033,2018,Thousands of dollars,3,"75,228",Dolores,CO,81323,37.515311,-108.45204,-7,1,37.515311
8048,CAINC1-1,08037,2018,Thousands of dollars,3,"4,524,124",Eagle,CO,81631,39.622314,-106.7751,-7,1,39.622314
8058,CAINC1-1,08039,2018,Thousands of dollars,3,"1,523,399",Elbert,CO,80106,39.148692,-104.5635,-7,1,39.148692
8084,CAINC1-1,08051,2018,Thousands of dollars,3,"823,372",Gunnison,CO,81247,38.457513,-107.29208100000001,-7,1,38.457513
8098,CAINC1-1,08059,2018,Thousands of dollars,3,"36,686,693",Jefferson,CO,80456,39.310793,-105.74027,-7,1,39.310793
8108,CAINC1-1,08061,2018,Thousands of dollars,3,"66,079",Kiowa,CO,80117,39.382543,-104.42846999999999,-7,1,39.382543
8118,CAINC1-1,08063,2018,Thousands of dollars,3,"277,058",Kit Carson,CO,80825,38.765737,-102.78889000000001,-7,1,38.765737
8128,CAINC1-1,08071,2018,Thousands of dollars,3,"579,812",Las Animas,CO,81054,38.037434999999995,-103.18630999999999,-7,1,38.037434999999995
8138,CAINC1-1,08077,2018,Thousands of dollars,3,"6,944,767",Mesa,CO,81643,39.102266,-108.16033,-7,1,39.102266
8148,CAINC1-1,08081,2018,Thousands of dollars,3,"557,261",Moffat,CO,81143,38.142453,-105.91578999999999,-7,1,38.142453
8166,CAINC1-1,08085,2018,Thousands of dollars,3,"1,735,660",Montrose,CO,81402,38.485093,-107.885975,-7,1,38.485093
8178,CAINC1-1,08091,2018,Thousands of dollars,3,"305,818",Ouray,CO,81427,38.016388,-107.67438,-7,1,38.016388
8188,CAINC1-1,08097,2018,Thousands of dollars,3,"2,769,702",Pitkin,CO,81241,38.607617,-106.52037,-7,1,38.607617
8310,CAINC1-1,08101,2018,Thousands of dollars,3,"6,578,511",Pueblo,CO,81003,38.281052,-104.62567,-7,1,38.281052
8348,CAINC1-1,08109,2018,Thousands of dollars,3,"231,231",Saguache,CO,81149,38.120209,-106.22626000000001,-7,1,38.120209
8358,CAINC1-1,08115,2018,Thousands of dollars,3,"99,239",Sedgwick,CO,80749,40.86845,-102.54595,-7,1,40.86845
8368,CAINC1-1,08125,2018,Thousands of dollars,3,"443,028",Yuma,CO,80759,40.169249,-102.69005,-7,1,40.169249
8410,CAINC1-1,09001,2018,Thousands of dollars,3,"110,852,692",Fairfield,CT,6430,41.163445,-73.2629,-5,1,41.163445
8708,CAINC1-1,09003,2018,Thousands of dollars,3,"57,230,137",Hartford,CT,6167,41.791776,-72.71883199999999,-5,1,41.791776
8788,CAINC1-1,09005,2018,Thousands of dollars,3,"11,386,305",Litchfield,CT,6759,41.754255,-73.21268,-5,1,41.754255
8998,CAINC1-1,09009,2018,Thousands of dollars,3,"47,801,068",New Haven,CT,6530,41.365709,-72.92750699999999,-5,1,41.365709
9058,CAINC1-1,09011,2018,Thousands of dollars,3,"15,421,095",New London,CT,6320,41.352498,-72.10338,-5,1,41.352498
9068,CAINC1-1,09013,2018,Thousands of dollars,3,"8,371,838",Tolland,CT,6084,41.87688,-72.36806,-5,1,41.87688
9078,CAINC1-1,09015,2018,Thousands of dollars,3,"5,359,794",Windham,CT,6280,41.697765000000004,-72.14671,-5,1,41.697765000000004
9096,CAINC1-1,10003,2018,Thousands of dollars,3,"31,907,909",New Castle,DE,19721,39.564499,-75.597047,-5,1,39.564499
9116,CAINC1-1,12001,2018,Thousands of dollars,3,"12,112,889",Alachua,FL,32615,29.801949,-82.48872,-5,1,29.801949
9128,CAINC1-1,12003,2018,Thousands of dollars,3,"926,242",Baker,FL,32531,30.8752,-86.68607,-6,1,30.8752
9138,CAINC1-1,12053,2018,Thousands of dollars,3,"7,050,728",Hernando,FL,34442,28.932925,-82.39477,-5,1,28.932925
9148,CAINC1-1,12071,2018,Thousands of dollars,3,"38,547,795",Lee,FL,32059,30.421598,-83.27037,-5,1,30.421598
9166,CAINC1-1,12079,2018,Thousands of dollars,3,"609,482",Madison,FL,32340,30.476181,-83.40303,-5,1,30.476181
9202,CAINC1-1,12093,2018,Thousands of dollars,3,"1,295,166",Okeechobee,FL,34924,27.227002000000002,-80.829442,-5,1,27.227002000000002
9218,CAINC1-1,12099,2018,Thousands of dollars,3,"120,772,867",Palm Beach,FL,33480,26.715066999999998,-80.03936999999999,-5,1,26.715066999999998
9356,CAINC1-1,12115,2018,Thousands of dollars,3,"28,079,762",Sarasota,FL,34237,27.336972999999997,-82.51505999999999,-5,1,27.336972999999997
9414,CAINC1-1,12117,2018,Thousands of dollars,3,"23,149,107",Seminole,FL,33775,27.891809000000002,-82.724763,-5,1,27.891809000000002
9428,CAINC1-1,12121,2018,Thousands of dollars,3,"1,493,538",Suwannee,FL,32692,29.330426,-83.14401,-5,1,29.330426
9438,CAINC1-1,13001,2018,Thousands of dollars,3,"630,958",Appling,GA,30802,33.620669,-82.30514000000001,-5,1,33.620669
9448,CAINC1-1,13009,2018,Thousands of dollars,3,"1,475,616",Baldwin,GA,30511,34.469971,-83.50035,-5,1,34.469971
9458,CAINC1-1,13015,2018,Thousands of dollars,3,"4,075,569",Bartow,GA,30413,32.884137,-82.50969,-5,1,32.884137
9476,CAINC1-1,13027,2018,Thousands of dollars,3,"550,521",Brooks,GA,30205,33.275707000000004,-84.46706,-5,1,33.275707000000004
9496,CAINC1-1,13037,2018,Thousands of dollars,3,"155,878",Calhoun,GA,30701,34.4966,-84.93798000000001,-5,1,34.4966
9508,CAINC1-1,13063,2018,Thousands of dollars,3,"8,047,505",Clayton,GA,30525,34.882362,-83.4156,-5,1,34.882362
9518,CAINC1-1,13067,2018,Thousands of dollars,3,"43,495,538",Cobb,GA,31735,31.959366999999997,-83.96028000000001,-5,1,31.959366999999997
9528,CAINC1-1,13071,2018,Thousands of dollars,3,"1,515,344",Colquitt,GA,31737,31.152253,-84.69653000000001,-5,1,31.152253
9538,CAINC1-1,13079,2018,Thousands of dollars,3,"417,510",Crawford,GA,30630,33.892957,-83.15548000000001,-5,1,33.892957
9548,CAINC1-1,13085,2018,Thousands of dollars,3,"1,147,712",Dawson,GA,31742,31.756995,-84.43356999999999,-5,1,31.756995
9614,CAINC1-1,13087,2018,Thousands of dollars,3,"975,473",Decatur,GA,30036,33.891251000000004,-84.07455999999999,-5,1,33.891251000000004
9654,CAINC1-1,13097,2018,Thousands of dollars,3,"5,117,910",Douglas,GA,31535,31.464972999999997,-82.86325,-5,1,31.464972999999997
9668,CAINC1-1,13109,2018,Thousands of dollars,3,"368,609",Evans,GA,30809,33.551145,-82.13949000000001,-5,1,33.551145
9678,CAINC1-1,13117,2018,Thousands of dollars,3,"14,748,059",Forsyth,GA,31029,33.0409,-83.92941,-5,1,33.0409
9688,CAINC1-1,13119,2018,Thousands of dollars,3,"826,254",Franklin,GA,30217,33.298014,-85.12243000000001,-5,1,33.298014
9698,CAINC1-1,13129,2018,Thousands of dollars,3,"2,027,999",Gordon,GA,31031,32.891498999999996,-83.32748000000001,-5,1,32.891498999999996
9708,CAINC1-1,13143,2018,Thousands of dollars,3,"1,089,029",Haralson,GA,30229,33.232155999999996,-84.56854,-5,1,33.232155999999996
9726,CAINC1-1,13157,2018,Thousands of dollars,3,"3,007,205",Jackson,GA,30283,33.295159000000005,-83.965099,-5,1,33.295159000000005
9738,CAINC1-1,13159,2018,Thousands of dollars,3,"527,092",Jasper,GA,30143,34.454934,-84.41583,-5,1,34.454934
9748,CAINC1-1,13163,2018,Thousands of dollars,3,"519,605",Jefferson,GA,30549,34.112581,-83.58251,-5,1,34.112581
9758,CAINC1-1,13187,2018,Thousands of dollars,3,"1,239,159",Lumpkin,GA,31815,32.030297,-84.81218,-5,1,32.030297
9944,CAINC1-1,13193,2018,Thousands of dollars,3,"406,773",Macon,GA,31212,32.806707,-83.691315,-5,1,32.806707
9998,CAINC1-1,13195,2018,Thousands of dollars,3,"1,092,089",Madison,GA,30650,33.588436,-83.47936,-5,1,33.588436
10008,CAINC1-1,13205,2018,Thousands of dollars,3,"785,709",Mitchell,GA,30820,33.224199,-82.713,-5,1,33.224199
10026,CAINC1-1,13207,2018,Thousands of dollars,3,"1,236,749",Monroe,GA,30655,33.786041,-83.69901,-5,1,33.786041
10038,CAINC1-1,13211,2018,Thousands of dollars,3,"959,347",Morgan,GA,31766,31.575228000000003,-84.59849,-5,1,31.575228000000003
10048,CAINC1-1,13217,2018,Thousands of dollars,3,"3,687,894",Newton,GA,31770,31.33349,-84.36269,-5,1,31.33349
10058,CAINC1-1,13219,2018,Thousands of dollars,3,"2,622,536",Oconee,GA,31067,32.860031,-82.95019,-5,1,32.860031
10068,CAINC1-1,13221,2018,Thousands of dollars,3,"559,015",Oglethorpe,GA,31068,32.329164,-84.07988,-5,1,32.329164
10078,CAINC1-1,13235,2018,Thousands of dollars,3,"339,849",Pulaski,GA,30451,32.414349,-82.086658,-5,1,32.414349
10088,CAINC1-1,13239,2018,Thousands of dollars,3,"68,804",Quitman,GA,31643,30.783639,-83.55343,-5,1,30.783639
10098,CAINC1-1,13251,2018,Thousands of dollars,3,"473,459",Screven,GA,31560,31.515981,-82.04908,-5,1,31.515981
10108,CAINC1-1,13257,2018,Thousands of dollars,3,"1,007,814",Stephens,GA,30667,33.784316,-83.16666,-5,1,33.784316
10118,CAINC1-1,13303,2018,Thousands of dollars,3,"722,007",Washington,GA,30673,33.728753999999995,-82.72612,-5,1,33.728753999999995
10128,CAINC1-1,13311,2018,Thousands of dollars,3,"1,046,473",White,GA,30184,34.236128,-84.72539,-5,1,34.236128
10490,CAINC1-1,15003,2018,Thousands of dollars,3,"58,129,300",Honolulu,HI,96802,24.859832,-168.021815,-10,0,24.859832
10876,CAINC1-1,16015,2018,Thousands of dollars,3,"320,732",Boise,ID,83735,43.459855,-116.24398400000001,-7,1,43.459855
10958,CAINC1-1,16041,2018,Thousands of dollars,3,"487,578",Franklin,ID,83237,42.021688,-111.79977,-7,1,42.021688
10968,CAINC1-1,16047,2018,Thousands of dollars,3,"829,156",Gooding,ID,83330,42.944346,-114.70605,-7,1,42.944346
10978,CAINC1-1,16053,2018,Thousands of dollars,3,"890,650",Jerome,ID,83338,42.710124,-114.46394,-7,1,42.710124
10988,CAINC1-1,16055,2018,Thousands of dollars,3,"7,320,336",Kootenai,ID,83840,48.314378000000005,-116.515276,-8,1,48.314378000000005
10998,CAINC1-1,16059,2018,Thousands of dollars,3,"337,563",Lemhi,ID,83465,44.817505,-113.67277,-7,1,44.817505
11008,CAINC1-1,16067,2018,Thousands of dollars,3,"817,165",Minidoka,ID,83343,42.772954999999996,-113.50976200000001,-7,1,42.772954999999996
11018,CAINC1-1,16075,2018,Thousands of dollars,3,"939,222",Payette,ID,83661,44.079947,-116.89433000000001,-7,1,44.079947
11028,CAINC1-1,16079,2018,Thousands of dollars,3,"463,963",Shoshone,ID,83352,43.036666,-114.40997,-7,1,43.036666
11038,CAINC1-1,16081,2018,Thousands of dollars,3,"464,309",Teton,ID,83451,43.890719,-111.64522,-7,1,43.890719
11056,CAINC1-1,16083,2018,Thousands of dollars,3,"3,506,187",Twin Falls,ID,83303,42.456272999999996,-114.51953600000002,-7,1,42.456272999999996
11068,CAINC1-1,17003,2018,Thousands of dollars,3,"214,127",Alexander,IL,62601,39.754308,-90.02786,-6,1,39.754308
11078,CAINC1-1,17011,2018,Thousands of dollars,3,"1,381,238",Bureau,IL,61315,41.289819,-89.37069,-6,1,41.289819
11088,CAINC1-1,17013,2018,Thousands of dollars,3,"203,117",Calhoun,IL,62419,38.625864,-87.99407,-6,1,38.625864
11138,CAINC1-1,17019,2018,Thousands of dollars,3,"9,361,788",Champaign,IL,61825,40.139946,-88.196102,-6,1,40.139946
11158,CAINC1-1,17027,2018,Thousands of dollars,3,"1,740,894",Clinton,IL,61727,40.145501,-88.96776,-6,1,40.145501
11168,CAINC1-1,17047,2018,Thousands of dollars,3,"260,003",Edwards,IL,61528,40.776845,-89.7401,-6,1,40.776845
11178,CAINC1-1,17049,2018,Thousands of dollars,3,"1,700,405",Effingham,IL,62401,39.123807,-88.56,-6,1,39.123807
11188,CAINC1-1,17055,2018,Thousands of dollars,3,"1,449,630",Franklin,IL,62638,39.609646999999995,-90.08116,-6,1,39.609646999999995
11198,CAINC1-1,17057,2018,Thousands of dollars,3,"1,324,394",Fulton,IL,61252,41.863049,-90.14524,-6,1,41.863049
11208,CAINC1-1,17065,2018,Thousands of dollars,3,"350,168",Hamilton,IL,62341,40.402015000000006,-91.33182,-6,1,40.402015000000006
11218,CAINC1-1,17069,2018,Thousands of dollars,3,"143,048",Hardin,IL,62047,39.128014,-90.6159,-6,1,39.128014
11228,CAINC1-1,17071,2018,Thousands of dollars,3,"286,651",Henderson,IL,61439,41.02572,-90.35566,-6,1,41.02572
11238,CAINC1-1,17073,2018,Thousands of dollars,3,"2,238,242",Henry,IL,61537,41.113828999999996,-89.38486,-6,1,41.113828999999996
11248,CAINC1-1,17075,2018,Thousands of dollars,3,"1,212,152",Iroquois,IL,60945,40.827011,-87.58355999999999,-6,1,40.827011
11258,CAINC1-1,17089,2018,Thousands of dollars,3,"26,924,793",Kane,IL,62054,39.192501,-90.34541,-6,1,39.192501
11276,CAINC1-1,17091,2018,Thousands of dollars,3,"4,550,632",Kankakee,IL,60902,41.146464,-87.888971,-6,1,41.146464
11296,CAINC1-1,17103,2018,Thousands of dollars,3,"1,430,131",Lee,IL,60530,41.792378,-88.9516,-6,1,41.792378
11308,CAINC1-1,17105,2018,Thousands of dollars,3,"1,618,372",Livingston,IL,62058,38.967324,-89.76133,-6,1,38.967324
11318,CAINC1-1,17107,2018,Thousands of dollars,3,"1,080,590",Logan,IL,62856,37.994296000000006,-88.941665,-6,1,37.994296000000006
11328,CAINC1-1,17111,2018,Thousands of dollars,3,"16,917,361",McHenry,IL,60054,42.35344,-88.260692,-6,1,42.35344
11338,CAINC1-1,17113,2018,Thousands of dollars,3,"8,488,859",McLean,IL,61754,40.321811,-89.15864,-6,1,40.321811
11348,CAINC1-1,17115,2018,Thousands of dollars,3,"5,037,722",Macon,IL,62544,39.693983,-88.98068,-6,1,39.693983
11358,CAINC1-1,17119,2018,Thousands of dollars,3,"12,329,516",Madison,IL,62060,38.6807,-90.15411,-6,1,38.6807
11368,CAINC1-1,17121,2018,Thousands of dollars,3,"1,562,229",Marion,IL,62959,37.724503999999996,-88.92968,-6,1,37.724503999999996
11378,CAINC1-1,17123,2018,Thousands of dollars,3,"531,015",Marshall,IL,62441,39.396463,-87.69589,-6,1,39.396463
11388,CAINC1-1,17125,2018,Thousands of dollars,3,"560,764",Mason,IL,62443,38.95232,-88.62883000000001,-6,1,38.95232
11398,CAINC1-1,17129,2018,Thousands of dollars,3,"568,353",Menard,IL,62259,38.013132,-89.899569,-6,1,38.013132
11408,CAINC1-1,17135,2018,Thousands of dollars,3,"1,028,582",Montgomery,IL,60538,41.721886,-88.32972,-6,1,41.721886
11690,CAINC1-1,17143,2018,Thousands of dollars,3,"9,069,951",Peoria,IL,61636,40.699937,-89.595147,-6,1,40.699937
11768,CAINC1-1,17145,2018,Thousands of dollars,3,"784,217",Perry,IL,62362,39.781349,-90.74616999999999,-6,1,39.781349
11778,CAINC1-1,17153,2018,Thousands of dollars,3,"198,777",Pulaski,IL,62976,37.214012,-89.21039,-6,1,37.214012
11788,CAINC1-1,17155,2018,Thousands of dollars,3,"338,392",Putnam,IL,61560,41.198060999999996,-89.43131,-6,1,41.198060999999996
11798,CAINC1-1,17159,2018,Thousands of dollars,3,"650,286",Richland,IL,61576,40.928331,-89.348163,-6,1,40.928331
11840,CAINC1-1,17161,2018,Thousands of dollars,3,"6,337,851",Rock Island,IL,61204,41.554901,-90.615975,-6,1,41.554901
11858,CAINC1-1,17181,2018,Thousands of dollars,3,"712,692",Union,IL,60180,42.229437,-88.52606,-6,1,42.229437
11868,CAINC1-1,17183,2018,Thousands of dollars,3,"3,004,944",Vermilion,IL,61955,39.679882,-87.75021600000001,-6,1,39.679882
11878,CAINC1-1,17187,2018,Thousands of dollars,3,"706,423",Warren,IL,61087,42.491388,-89.98979,-6,1,42.491388
11888,CAINC1-1,17189,2018,Thousands of dollars,3,"670,524",Washington,IL,61571,40.701037,-89.44294000000001,-6,1,40.701037
11898,CAINC1-1,17191,2018,Thousands of dollars,3,"627,488",Wayne,IL,60184,41.953427000000005,-88.25176,-6,1,41.953427000000005
11908,CAINC1-1,17201,2018,Thousands of dollars,3,"12,328,708",Winnebago,IL,61088,42.271384999999995,-89.25099,-6,1,42.271384999999995
11918,CAINC1-1,18023,2018,Thousands of dollars,3,"1,266,051",Clinton,IN,47842,39.66851,-87.43576999999999,-5,0,39.66851
11928,CAINC1-1,18031,2018,Thousands of dollars,3,"1,141,711",Decatur,IN,46733,40.831351,-84.93704,-5,0,40.831351
11938,CAINC1-1,18037,2018,Thousands of dollars,3,"2,393,508",Dubois,IN,47527,38.473956,-86.77776999999999,-5,0,38.473956
11972,CAINC1-1,18039,2018,Thousands of dollars,3,"9,531,126",Elkhart,IN,46516,41.676899,-85.96044,-5,0,41.676899
11996,CAINC1-1,18047,2018,Thousands of dollars,3,"1,048,614",Franklin,IN,46696,41.156890999999995,-86.604952,-5,0,41.156890999999995
12008,CAINC1-1,18049,2018,Thousands of dollars,3,"849,777",Fulton,IN,46931,40.947157000000004,-86.26393,-5,0,40.947157000000004
12018,CAINC1-1,18057,2018,Thousands of dollars,3,"24,989,148",Hamilton,IN,46742,41.544911,-84.89154,-5,0,41.544911
12028,CAINC1-1,18061,2018,Thousands of dollars,3,"1,686,707",Harrison,IN,46966,41.046274,-86.563025,-5,0,41.046274
12038,CAINC1-1,18069,2018,Thousands of dollars,3,"1,519,071",Huntington,IN,46750,40.872261,-85.49061,-5,0,40.872261
12048,CAINC1-1,18071,2018,Thousands of dollars,3,"1,891,984",Jackson,IN,47718,38.420839,-86.570962,-5,0,38.420839
12074,CAINC1-1,18073,2018,Thousands of dollars,3,"1,469,759",Jasper,IN,47549,38.364748999999996,-86.876173,-5,0,38.364748999999996
12096,CAINC1-1,18077,2018,Thousands of dollars,3,"1,364,891",Jefferson,IN,47045,38.77905,-84.99462,-5,0,38.77905
12108,CAINC1-1,18083,2018,Thousands of dollars,3,"1,636,882",Knox,IN,46534,41.282821999999996,-86.61613,-5,0,41.282821999999996
12118,CAINC1-1,18087,2018,Thousands of dollars,3,"1,690,021",Lagrange,IN,46761,41.634457,-85.35825,-5,0,41.634457
12144,CAINC1-1,18095,2018,Thousands of dollars,3,"4,951,907",Madison,IN,47250,38.787175,-85.38031,-5,0,38.787175
12166,CAINC1-1,18097,2018,Thousands of dollars,3,"50,634,219",Marion,IN,46953,40.53089,-85.65921999999999,-5,0,40.53089
12178,CAINC1-1,18099,2018,Thousands of dollars,3,"1,930,734",Marshall,IN,47859,39.865058000000005,-87.17504,-5,0,39.865058000000005
12188,CAINC1-1,18103,2018,Thousands of dollars,3,"1,251,201",Miami,IN,46959,40.614644,-86.10749,-5,0,40.614644
12198,CAINC1-1,18105,2018,Thousands of dollars,3,"6,208,713",Monroe,IN,46772,40.736015,-84.92161,-5,0,40.736015
12208,CAINC1-1,18107,2018,Thousands of dollars,3,"1,524,641",Montgomery,IN,47558,38.660051,-87.04626,-5,0,38.660051
12218,CAINC1-1,18113,2018,Thousands of dollars,3,"1,892,212",Noble,IN,46692,40.752777,-85.744328,-5,0,40.752777
12228,CAINC1-1,18127,2018,Thousands of dollars,3,"8,973,157",Porter,IN,46386,41.428872999999996,-87.170527,-6,1,41.428872999999996
12238,CAINC1-1,18143,2018,Thousands of dollars,3,"891,035",Scott,IN,47729,38.110995,-87.527249,-6,1,38.110995
12248,CAINC1-1,18145,2018,Thousands of dollars,3,"1,937,417",Shelby,IN,46377,41.191665,-87.34695,-6,1,41.191665
12258,CAINC1-1,18147,2018,Thousands of dollars,3,"893,591",Spencer,IN,47460,39.290029,-86.77844,-5,0,39.290029
12268,CAINC1-1,18153,2018,Thousands of dollars,3,"739,390",Sullivan,IN,47882,39.090478999999995,-87.40666999999999,-5,0,39.090478999999995
12278,CAINC1-1,18157,2018,Thousands of dollars,3,"7,557,753",Tippecanoe,IN,46570,41.208493,-86.12106999999999,-5,0,41.208493
12288,CAINC1-1,18159,2018,Thousands of dollars,3,"705,198",Tipton,IN,46072,40.284040999999995,-86.04681,-5,0,40.284040999999995
12298,CAINC1-1,18169,2018,Thousands of dollars,3,"1,327,027",Wabash,IN,46992,40.795068,-85.82953,-5,0,40.795068
12308,CAINC1-1,18171,2018,Thousands of dollars,3,"368,410",Warren,IN,46792,40.683261,-85.43218,-5,0,40.683261
12342,CAINC1-1,18175,2018,Thousands of dollars,3,"1,082,160",Washington,IN,47169,38.609733,-86.05520200000001,-5,0,38.609733
12358,CAINC1-1,19001,2018,Thousands of dollars,3,"373,624",Adair,IA,50002,41.507565,-94.64805,-6,1,41.507565
12368,CAINC1-1,19009,2018,Thousands of dollars,3,"287,401",Audubon,IA,50025,41.741295,-94.92781,-6,1,41.741295
12378,CAINC1-1,19011,2018,Thousands of dollars,3,"1,367,200",Benton,IA,50835,40.69705,-94.33067,-6,1,40.69705
12396,CAINC1-1,19015,2018,Thousands of dollars,3,"1,261,720",Boone,IA,50037,42.036552,-93.931686,-6,1,42.036552
12408,CAINC1-1,19027,2018,Thousands of dollars,3,"1,127,244",Carroll,IA,51401,42.066399,-94.86786,-6,1,42.066399
12414,CAINC1-1,19031,2018,Thousands of dollars,3,"1,011,110",Cedar,IA,52543,41.218744,-92.51977,-6,1,41.218744
12428,CAINC1-1,19035,2018,Thousands of dollars,3,"700,013",Cherokee,IA,51012,42.754003999999995,-95.54919,-6,1,42.754003999999995
12454,CAINC1-1,19045,2018,Thousands of dollars,3,"2,065,782",Clinton,IA,52733,41.880619,-90.51951899999999,-6,1,41.880619
12468,CAINC1-1,19049,2018,Thousands of dollars,3,"6,067,564",Dallas,IA,50062,41.23022,-93.23904,-6,1,41.23022
12478,CAINC1-1,19053,2018,Thousands of dollars,3,"277,282",Decatur,IA,50067,40.734072,-93.85169,-6,1,40.734072
12488,CAINC1-1,19055,2018,Thousands of dollars,3,"889,037",Delaware,IA,52036,42.473959,-91.34228,-6,1,42.473959
12962,CAINC1-1,19057,2018,Thousands of dollars,3,"1,939,203",Des Moines,IA,50394,41.672686999999996,-93.57217299999999,-6,1,41.672686999999996
13120,CAINC1-1,19061,2018,Thousands of dollars,3,"4,857,757",Dubuque,IA,52002,42.50963,-90.75329,-6,1,42.50963
13138,CAINC1-1,19065,2018,Thousands of dollars,3,"886,749",Fayette,IA,52142,42.834286,-91.79794,-6,1,42.834286
13148,CAINC1-1,19067,2018,Thousands of dollars,3,"749,118",Floyd,IA,50435,43.157144,-92.76056,-6,1,43.157144
13158,CAINC1-1,19071,2018,Thousands of dollars,3,"311,456",Fremont,IA,52561,41.214824,-92.43864,-6,1,41.214824
13168,CAINC1-1,19073,2018,Thousands of dollars,3,"442,099",Greene,IA,50636,42.891377,-92.80848,-6,1,42.891377
13178,CAINC1-1,19079,2018,Thousands of dollars,3,"830,738",Hamilton,IA,50116,41.17969,-92.94775,-6,1,41.17969
13188,CAINC1-1,19081,2018,Thousands of dollars,3,"587,395",Hancock,IA,51536,41.388872,-95.36782,-6,1,41.388872
13198,CAINC1-1,19091,2018,Thousands of dollars,3,"478,139",Humboldt,IA,50548,42.720313,-94.22516999999999,-6,1,42.720313
13208,CAINC1-1,19101,2018,Thousands of dollars,3,"740,251",Jefferson,IA,50129,42.017677,-94.37939,-6,1,42.017677
13218,CAINC1-1,19107,2018,Thousands of dollars,3,"466,362",Keokuk,IA,52632,40.409641,-91.40001,-6,1,40.409641
13228,CAINC1-1,19117,2018,Thousands of dollars,3,"359,135",Lucas,IA,50151,41.06058,-93.49076,-6,1,41.06058
13238,CAINC1-1,19125,2018,Thousands of dollars,3,"1,620,973",Marion,IA,52302,42.042648,-91.58261999999999,-6,1,42.042648
13248,CAINC1-1,19133,2018,Thousands of dollars,3,"398,194",Monona,IA,52159,43.061204,-91.37925,-6,1,43.061204
13258,CAINC1-1,19135,2018,Thousands of dollars,3,"338,062",Monroe,IA,50170,41.528347,-93.10517,-6,1,41.528347
13268,CAINC1-1,19143,2018,Thousands of dollars,3,"341,593",Osceola,IA,50213,41.031309,-93.77004000000001,-6,1,41.031309
13278,CAINC1-1,19149,2018,Thousands of dollars,3,"1,435,294",Plymouth,IA,50464,43.248523999999996,-93.09976,-6,1,43.248523999999996
13288,CAINC1-1,19151,2018,Thousands of dollars,3,"379,372",Pocahontas,IA,50574,42.724938,-94.68365,-6,1,42.724938
13298,CAINC1-1,19165,2018,Thousands of dollars,3,"611,111",Shelby,IA,51570,41.52279,-95.46500999999999,-6,1,41.52279
13316,CAINC1-1,19171,2018,Thousands of dollars,3,"778,289",Tama,IA,52339,41.95277,-92.58225,-6,1,41.95277
13328,CAINC1-1,19175,2018,Thousands of dollars,3,"503,996",Union,IA,50258,42.232454,-93.07833000000001,-6,1,42.232454
13338,CAINC1-1,19179,2018,Thousands of dollars,3,"1,356,032",Wapello,IA,52653,41.171534,-91.17035,-6,1,41.171534
13348,CAINC1-1,19183,2018,Thousands of dollars,3,"1,314,445",Washington,IA,52353,41.300042,-91.69743000000001,-6,1,41.300042
13358,CAINC1-1,19187,2018,Thousands of dollars,3,"1,669,112",Webster,IA,52355,41.459739,-92.17863,-6,1,41.459739
13368,CAINC1-1,20001,2018,Thousands of dollars,3,"497,069",Allen,KS,66833,38.672825,-96.16385,-6,1,38.672825
13378,CAINC1-1,20005,2018,Thousands of dollars,3,"615,923",Atchison,KS,66002,39.553785999999995,-95.13472,-6,1,39.553785999999995
13388,CAINC1-1,20017,2018,Thousands of dollars,3,"135,423",Chase,KS,67524,38.360414,-98.37397,-6,1,38.360414
13398,CAINC1-1,20019,2018,Thousands of dollars,3,"134,368",Chautauqua,KS,67334,37.026171999999995,-96.17845,-6,1,37.026171999999995
13408,CAINC1-1,20021,2018,Thousands of dollars,3,"820,247",Cherokee,KS,66724,37.347065,-94.82665,-6,1,37.347065
13418,CAINC1-1,20051,2018,Thousands of dollars,3,"1,317,137",Ellis,KS,67637,38.933306,-99.60135,-6,1,38.933306
13428,CAINC1-1,20053,2018,Thousands of dollars,3,"271,439",Ellsworth,KS,67439,38.744056,-98.22729,-6,1,38.744056
13438,CAINC1-1,20057,2018,Thousands of dollars,3,"1,328,624",Ford,KS,67842,37.549040999999995,-99.74869,-6,1,37.549040999999995
13448,CAINC1-1,20059,2018,Thousands of dollars,3,"1,093,449",Franklin,KS,66735,37.522439,-94.70402,-6,1,37.522439
13458,CAINC1-1,20063,2018,Thousands of dollars,3,"152,862",Gove,KS,67736,38.882721999999994,-100.46085,-6,1,38.882721999999994
13468,CAINC1-1,20071,2018,Thousands of dollars,3,"93,477",Greeley,KS,66033,38.368325,-95.12925,-6,1,38.368325
13478,CAINC1-1,20075,2018,Thousands of dollars,3,"145,708",Hamilton,KS,66853,38.000062,-96.21271,-6,1,38.000062
13488,CAINC1-1,20077,2018,Thousands of dollars,3,"261,705",Harper,KS,67058,37.297897999999996,-98.03916,-6,1,37.297897999999996
13498,CAINC1-1,20089,2018,Thousands of dollars,3,"143,944",Jewell,KS,66949,39.652105999999996,-98.18519,-6,1,39.652105999999996
13508,CAINC1-1,20091,2018,Thousands of dollars,3,"44,540,502",Johnson,KS,67855,37.557733,-101.68074,-6,1,37.557733
13518,CAINC1-1,20095,2018,Thousands of dollars,3,"314,899",Kingman,KS,67068,37.618339,-98.10611999999999,-6,1,37.618339
13528,CAINC1-1,20097,2018,Thousands of dollars,3,"106,712",Kiowa,KS,67070,37.037217999999996,-98.49342,-6,1,37.037217999999996
13538,CAINC1-1,20101,2018,Thousands of dollars,3,"111,515",Lane,KS,66042,38.442448,-95.09066999999999,-6,1,38.442448
13548,CAINC1-1,20103,2018,Thousands of dollars,3,"3,473,826",Leavenworth,KS,66048,39.298776000000004,-94.93555,-6,1,39.298776000000004
13574,CAINC1-1,20105,2018,Thousands of dollars,3,"128,139",Lincoln,KS,66356,37.57189,-94.654599,-6,1,37.57189
13588,CAINC1-1,20107,2018,Thousands of dollars,3,"375,837",Linn,KS,66953,39.689909,-97.10565,-6,1,39.689909
13598,CAINC1-1,20109,2018,Thousands of dollars,3,"130,925",Logan,KS,67646,39.65573,-99.59094,-6,1,39.65573
13608,CAINC1-1,20115,2018,Thousands of dollars,3,"501,150",Marion,KS,66861,38.359189,-97.01768,-6,1,38.359189
13618,CAINC1-1,20119,2018,Thousands of dollars,3,"238,589",Meade,KS,67864,37.21313,-100.34464,-6,1,37.21313
13628,CAINC1-1,20137,2018,Thousands of dollars,3,"229,154",Norton,KS,67654,39.822765999999994,-99.93288000000001,-6,1,39.822765999999994
13638,CAINC1-1,20141,2018,Thousands of dollars,3,"166,864",Osborne,KS,67473,39.409385,-98.7059,-6,1,39.409385
13648,CAINC1-1,20143,2018,Thousands of dollars,3,"240,613",Ottawa,KS,66067,38.614986,-95.27355,-6,1,38.614986
13658,CAINC1-1,20151,2018,Thousands of dollars,3,"446,840",Pratt,KS,67124,37.642738,-98.75394,-6,1,37.642738
13668,CAINC1-1,20157,2018,Thousands of dollars,3,"205,399",Republic,KS,66964,39.931181,-97.81023,-6,1,39.931181
13678,CAINC1-1,20161,2018,Thousands of dollars,3,"3,065,101",Riley,KS,66531,39.303014000000005,-96.84635,-6,1,39.303014000000005
13688,CAINC1-1,20167,2018,Thousands of dollars,3,"308,060",Russell,KS,67665,38.866551,-98.8672,-6,1,38.866551
13698,CAINC1-1,20173,2018,Thousands of dollars,3,"26,706,256",Sedgwick,KS,67135,37.921184999999994,-97.44004,-6,1,37.921184999999994
13708,CAINC1-1,20185,2018,Thousands of dollars,3,"198,340",Stafford,KS,67578,37.976752000000005,-98.59125999999999,-6,1,37.976752000000005
13718,CAINC1-1,20199,2018,Thousands of dollars,3,"79,195",Wallace,KS,67761,38.912898,-101.50936999999999,-7,1,38.912898
13728,CAINC1-1,20201,2018,Thousands of dollars,3,"250,000",Washington,KS,66968,39.815521999999994,-97.06111,-6,1,39.815521999999994
14050,CAINC1-1,20203,2018,Thousands of dollars,3,"153,046",Wichita,KS,67235,37.692778000000004,-97.4959,-6,1,37.692778000000004
14138,CAINC1-1,20205,2018,Thousands of dollars,3,"362,856",Wilson,KS,67490,38.817788,-98.44972,-6,1,38.817788
14148,CAINC1-1,21003,2018,Thousands of dollars,3,"682,416",Allen,KY,41601,37.611434,-82.72503,-5,1,37.611434
14158,CAINC1-1,21031,2018,Thousands of dollars,3,"435,054",Butler,KY,41006,38.796981,-84.33792,-5,1,38.796981
14168,CAINC1-1,21039,2018,Thousands of dollars,3,"188,961",Carlisle,KY,40311,38.320944,-84.02358000000001,-5,1,38.320944
14178,CAINC1-1,21043,2018,Thousands of dollars,3,"828,652",Carter,KY,41128,38.433912,-83.133597,-5,1,38.433912
14188,CAINC1-1,21051,2018,Thousands of dollars,3,"613,332",Clay,KY,42404,37.481719,-87.8394,-6,1,37.481719
14198,CAINC1-1,21053,2018,Thousands of dollars,3,"319,216",Clinton,KY,42031,36.678217,-88.97559,-6,1,36.678217
14208,CAINC1-1,21055,2018,Thousands of dollars,3,"308,311",Crittenden,KY,41030,38.788439000000004,-84.602,-5,1,38.788439000000004
14218,CAINC1-1,21057,2018,Thousands of dollars,3,"230,035",Cumberland,KY,40823,36.972291999999996,-82.99571999999999,-5,1,36.972291999999996
14236,CAINC1-1,21073,2018,Thousands of dollars,3,"2,130,310",Franklin,KY,42135,36.758165999999996,-86.58195699999999,-6,1,36.758165999999996
14248,CAINC1-1,21075,2018,Thousands of dollars,3,"202,343",Fulton,KY,42041,36.532059000000004,-88.89132,-6,1,36.532059000000004
14258,CAINC1-1,21079,2018,Thousands of dollars,3,"602,048",Garrard,KY,40941,37.176075,-83.66608000000001,-5,1,37.176075
14276,CAINC1-1,21085,2018,Thousands of dollars,3,"872,590",Grayson,KY,41163,38.338445,-82.939541,-5,1,38.338445
14288,CAINC1-1,21089,2018,Thousands of dollars,3,"1,463,148",Greenup,KY,41144,38.552471999999995,-82.86514,-5,1,38.552471999999995
14298,CAINC1-1,21093,2018,Thousands of dollars,3,"4,702,949",Hardin,KY,42048,36.765893,-88.26527,-6,1,36.765893
14308,CAINC1-1,21095,2018,Thousands of dollars,3,"812,906",Harlan,KY,40831,36.828285,-83.31855999999999,-5,1,36.828285
14326,CAINC1-1,21101,2018,Thousands of dollars,3,"1,796,537",Henderson,KY,42420,37.825094,-87.56055,-6,1,37.825094
14338,CAINC1-1,21105,2018,Thousands of dollars,3,"191,009",Hickman,KY,42050,36.558597999999996,-89.19789,-6,1,36.558597999999996
14348,CAINC1-1,21109,2018,Thousands of dollars,3,"386,249",Jackson,KY,41339,37.533559000000004,-83.34546999999999,-5,1,37.533559000000004
14358,CAINC1-1,21117,2018,Thousands of dollars,3,"9,394,036",Kenton,KY,41053,38.944663,-84.520501,-5,1,38.944663
14368,CAINC1-1,21133,2018,Thousands of dollars,3,"666,182",Letcher,KY,41832,37.148006,-82.95634,-5,1,37.148006
14378,CAINC1-1,21139,2018,Thousands of dollars,3,"339,386",Livingston,KY,40445,37.302783000000005,-84.21526999999999,-5,1,37.302783000000005
14388,CAINC1-1,21155,2018,Thousands of dollars,3,"697,462",Marion,KY,42064,37.331602000000004,-88.06997,-6,1,37.331602000000004
14398,CAINC1-1,21159,2018,Thousands of dollars,3,"333,484",Martin,KY,41649,37.568872999999996,-82.75936999999999,-5,1,37.568872999999996
14408,CAINC1-1,21161,2018,Thousands of dollars,3,"678,914",Mason,KY,41054,38.593226,-84.578552,-5,1,38.593226
14418,CAINC1-1,21191,2018,Thousands of dollars,3,"634,078",Pendleton,KY,40055,38.495453999999995,-85.33839,-5,1,38.495453999999995
14428,CAINC1-1,21207,2018,Thousands of dollars,3,"643,882",Russell,KY,41169,38.538456,-82.70855999999999,-5,1,38.538456
14438,CAINC1-1,21225,2018,Thousands of dollars,3,"494,692",Union,KY,41091,38.930285,-84.71603,-5,1,38.930285
14448,CAINC1-1,21229,2018,Thousands of dollars,3,"448,624",Washington,KY,41096,38.61225,-83.808021,-5,1,38.61225
14458,CAINC1-1,21233,2018,Thousands of dollars,3,"509,593",Webster,KY,40176,37.934279,-86.34869,-6,1,37.934279
14468,CAINC1-1,22013,2018,Thousands of dollars,3,"512,765",Bienville,LA,71008,32.331964,-92.95173,-6,1,32.331964
14476,CAINC1-1,22023,2018,Thousands of dollars,3,"335,750",Cameron,LA,70631,29.778234,-93.40907,-6,1,29.778234
14488,CAINC1-1,22039,2018,Thousands of dollars,3,"1,107,852",Evangeline,LA,70537,30.261809000000003,-92.5677,-6,1,30.261809000000003
14498,CAINC1-1,22041,2018,Thousands of dollars,3,"644,597",Franklin,LA,70538,29.759314,-91.52561,-6,1,29.759314
14508,CAINC1-1,22043,2018,Thousands of dollars,3,"695,233",Grant,LA,70644,30.799893,-92.94408,-6,1,30.799893
14518,CAINC1-1,22049,2018,Thousands of dollars,3,"538,956",Jackson,LA,70748,30.826285,-91.22811999999999,-6,1,30.826285
14528,CAINC1-1,22051,2018,Thousands of dollars,3,"22,082,605",Jefferson,LA,70021,29.960375,-90.156143,-6,1,29.960375
14626,CAINC1-1,22055,2018,Thousands of dollars,3,"11,841,357",Lafayette,LA,70509,30.156506,-92.000019,-6,1,30.156506
14658,CAINC1-1,22063,2018,Thousands of dollars,3,"5,735,651",Livingston,LA,70754,30.447865999999998,-90.75228,-6,1,30.447865999999998
14684,CAINC1-1,22069,2018,Thousands of dollars,3,"1,551,388",Natchitoches,LA,71458,31.747563,-93.07905500000001,-6,1,31.747563
14698,CAINC1-1,22105,2018,Thousands of dollars,3,"5,047,372",Tangipahoa,LA,70465,30.875453000000004,-90.51254,-6,1,30.875453000000004
14708,CAINC1-1,22117,2018,Thousands of dollars,3,"1,553,602",Washington,LA,70589,30.653805,-92.05479,-6,1,30.653805
14718,CAINC1-1,23007,2018,Thousands of dollars,3,"1,157,401",Franklin,ME,4634,44.617844,-68.23546,-5,1,44.617844
14728,CAINC1-1,23009,2018,Thousands of dollars,3,"2,772,576",Hancock,ME,4640,44.524526,-68.28298000000001,-5,1,44.524526
14738,CAINC1-1,23015,2018,Thousands of dollars,3,"1,727,332",Lincoln,ME,4457,45.368934,-68.48354,-5,1,45.368934
14748,CAINC1-1,23017,2018,Thousands of dollars,3,"2,187,638",Oxford,ME,4270,44.114612,-70.50506,-5,1,44.114612
14758,CAINC1-1,23019,2018,Thousands of dollars,3,"6,317,871",Penobscot,ME,4476,44.444707,-68.73576,-5,1,44.444707
14768,CAINC1-1,23029,2018,Thousands of dollars,3,"1,248,278",Washington,ME,4574,44.274007,-69.38896,-5,1,44.274007
14778,CAINC1-1,23031,2018,Thousands of dollars,3,"10,743,560",York,ME,3909,43.159537,-70.65239,-5,1,43.159537
15188,CAINC1-1,24005,2018,Thousands of dollars,3,"50,614,690",Baltimore,MD,21201,39.295306,-76.62118000000001,-5,1,39.295306
15338,CAINC1-1,24021,2018,Thousands of dollars,3,"15,884,689",Frederick,MD,21704,39.363415,-77.37849,-5,1,39.363415
15358,CAINC1-1,25001,2018,Thousands of dollars,3,"15,949,290",Barnstable,MA,2630,41.700327,-70.29568,-5,1,41.700327
15368,CAINC1-1,25003,2018,Thousands of dollars,3,"7,132,374",Berkshire,MA,1224,42.3929,-73.228483,-5,1,42.3929
15378,CAINC1-1,25009,2018,Thousands of dollars,3,"53,317,797",Essex,MA,1929,42.631753,-70.77925,-5,1,42.631753
15388,CAINC1-1,25011,2018,Thousands of dollars,3,"3,870,676",Franklin,MA,2038,42.089104,-71.4069,-5,1,42.089104
15398,CAINC1-1,25013,2018,Thousands of dollars,3,"24,232,557",Hampden,MA,1036,42.064703,-72.41735,-5,1,42.064703
15424,CAINC1-1,25019,2018,Thousands of dollars,3,"1,488,055",Nantucket,MA,2654,41.543966999999995,-69.98720300000001,-5,1,41.543966999999995
15438,CAINC1-1,25021,2018,Thousands of dollars,3,"64,871,581",Norfolk,MA,2056,42.111836,-71.32855,-5,1,42.111836
15472,CAINC1-1,25023,2018,Thousands of dollars,3,"34,874,163",Plymouth,MA,2363,41.959094,-70.706774,-5,1,41.959094
15608,CAINC1-1,25027,2018,Thousands of dollars,3,"46,847,603",Worcester,MA,1654,42.364807,-71.89686800000001,-5,1,42.364807
15648,CAINC1-1,26003,2018,Thousands of dollars,3,"304,925",Alger,MI,48610,44.142282,-84.14497,-5,1,44.142282
15658,CAINC1-1,26005,2018,Thousands of dollars,3,"5,236,004",Allegan,MI,49010,42.531244,-85.87438,-5,1,42.531244
15668,CAINC1-1,26007,2018,Thousands of dollars,3,"1,143,252",Alpena,MI,49707,45.08583,-83.46410999999999,-5,1,45.08583
15678,CAINC1-1,26013,2018,Thousands of dollars,3,"270,093",Baraga,MI,49908,46.795417,-88.52645,-5,1,46.795417
15688,CAINC1-1,26023,2018,Thousands of dollars,3,"1,587,405",Branch,MI,49402,43.930995,-86.05421,-5,1,43.930995
15698,CAINC1-1,26029,2018,Thousands of dollars,3,"1,369,169",Charlevoix,MI,49720,45.294169000000004,-85.24516,-5,1,45.294169000000004
15708,CAINC1-1,26031,2018,Thousands of dollars,3,"990,515",Cheboygan,MI,49721,45.589694,-84.4625,-5,1,45.589694
15718,CAINC1-1,26035,2018,Thousands of dollars,3,"1,040,265",Clare,MI,48617,43.828266,-84.74219000000001,-5,1,43.828266
15736,CAINC1-1,26037,2018,Thousands of dollars,3,"3,628,001",Clinton,MI,49236,42.067837,-83.95779,-5,1,42.067837
15748,CAINC1-1,26049,2018,Thousands of dollars,3,"16,518,658",Genesee,MI,48437,43.111009,-83.62016,-5,1,43.111009
15758,CAINC1-1,26051,2018,Thousands of dollars,3,"924,868",Gladwin,MI,48624,44.041529,-84.46503,-5,1,44.041529
15768,CAINC1-1,26059,2018,Thousands of dollars,3,"1,609,682",Hillsdale,MI,49242,41.89958,-84.62624,-5,1,41.89958
15786,CAINC1-1,26061,2018,Thousands of dollars,3,"1,348,554",Houghton,MI,49924,47.414054,-88.29795899999999,-5,1,47.414054
15798,CAINC1-1,26067,2018,Thousands of dollars,3,"2,233,648",Ionia,MI,48846,42.981932,-85.06679,-5,1,42.981932
15832,CAINC1-1,26075,2018,Thousands of dollars,3,"6,211,490",Jackson,MI,49203,42.227536,-84.40913,-5,1,42.227536
15920,CAINC1-1,26077,2018,Thousands of dollars,3,"12,778,555",Kalamazoo,MI,49004,42.330089,-85.56635,-5,1,42.330089
15948,CAINC1-1,26079,2018,Thousands of dollars,3,"614,306",Kalkaska,MI,49646,44.743834,-85.08986,-5,1,44.743834
15958,CAINC1-1,26085,2018,Thousands of dollars,3,"379,142",Lake,MI,48632,43.864435,-85.00864,-5,1,43.864435
15968,CAINC1-1,26087,2018,Thousands of dollars,3,"3,806,317",Lapeer,MI,48446,43.048777,-83.33073,-5,1,43.048777
15986,CAINC1-1,26099,2018,Thousands of dollars,3,"40,217,335",Macomb,MI,48044,42.650265000000005,-82.93415999999999,-5,1,42.650265000000005
15998,CAINC1-1,26101,2018,Thousands of dollars,3,"932,982",Manistee,MI,49660,44.234322,-86.27234,-5,1,44.234322
16008,CAINC1-1,26103,2018,Thousands of dollars,3,"2,634,202",Marquette,MI,49855,46.554402,-87.42223,-5,1,46.554402
16018,CAINC1-1,26105,2018,Thousands of dollars,3,"1,172,304",Mason,MI,48854,42.582902000000004,-84.44738000000001,-5,1,42.582902000000004
16028,CAINC1-1,26107,2018,Thousands of dollars,3,"1,442,796",Mecosta,MI,49332,43.623053000000006,-85.25883,-5,1,43.623053000000006
16038,CAINC1-1,26109,2018,Thousands of dollars,3,"979,368",Menominee,MI,49858,45.1431,-87.60897,-6,1,45.1431
16096,CAINC1-1,26111,2018,Thousands of dollars,3,"4,524,934",Midland,MI,48642,43.652404,-84.21670999999999,-5,1,43.652404
16126,CAINC1-1,26115,2018,Thousands of dollars,3,"7,040,382",Monroe,MI,48161,41.904793,-83.41669,-5,1,41.904793
16178,CAINC1-1,26121,2018,Thousands of dollars,3,"6,646,850",Muskegon,MI,49445,43.278021,-86.2682,-5,1,43.278021
16198,CAINC1-1,26123,2018,Thousands of dollars,3,"1,804,800",Newaygo,MI,49337,43.430588,-85.73515,-5,1,43.430588
16208,CAINC1-1,26125,2018,Thousands of dollars,3,"89,660,752",Oakland,MI,48363,42.765582,-83.17281,-5,1,42.765582
16218,CAINC1-1,26131,2018,Thousands of dollars,3,"228,259",Ontonagon,MI,49953,46.846455,-89.35119,-5,1,46.846455
16228,CAINC1-1,26135,2018,Thousands of dollars,3,"274,602",Oscoda,MI,48750,44.447318,-83.41927,-5,1,44.447318
16238,CAINC1-1,26137,2018,Thousands of dollars,3,"993,270",Otsego,MI,49078,42.459989,-85.71069,-5,1,42.459989
16248,CAINC1-1,26141,2018,Thousands of dollars,3,"506,813",Presque Isle,MI,49777,45.311011,-83.49878000000001,-5,1,45.311011
16258,CAINC1-1,26143,2018,Thousands of dollars,3,"873,454",Roscommon,MI,48653,44.484145,-84.66089000000001,-5,1,44.484145
16340,CAINC1-1,26145,2018,Thousands of dollars,3,"7,540,269",Saginaw,MI,48603,43.441975,-84.01177,-5,1,43.441975
16368,CAINC1-1,26153,2018,Thousands of dollars,3,"319,003",Schoolcraft,MI,49087,42.117421,-85.67594,-5,1,42.117421
16378,CAINC1-1,26157,2018,Thousands of dollars,3,"1,950,634",Tuscola,MI,48769,43.327048,-83.65735500000001,-5,1,43.327048
16388,CAINC1-1,26163,2018,Thousands of dollars,3,"75,595,914",Wayne,MI,48184,42.276688,-83.3786,-5,1,42.276688
16398,CAINC1-1,27001,2018,Thousands of dollars,3,"636,698",Aitkin,MN,56431,46.507241,-93.66458,-6,1,46.507241
16408,CAINC1-1,27003,2018,Thousands of dollars,3,"18,049,807",Anoka,MN,55303,45.247509,-93.41799999999999,-6,1,45.247509
16418,CAINC1-1,27005,2018,Thousands of dollars,3,"1,621,892",Becker,MN,55308,45.426203,-93.85016999999999,-6,1,45.426203
16428,CAINC1-1,27007,2018,Thousands of dollars,3,"1,927,221",Beltrami,MN,56517,47.55171,-96.53492,-6,1,47.55171
16438,CAINC1-1,27013,2018,Thousands of dollars,3,"3,049,198",Blue Earth,MN,56013,43.630763,-94.10129,-6,1,43.630763
16448,CAINC1-1,27017,2018,Thousands of dollars,3,"1,532,854",Carlton,MN,55718,46.649696999999996,-92.48477,-6,1,46.649696999999996
16458,CAINC1-1,27019,2018,Thousands of dollars,3,"7,378,582",Carver,MN,55315,44.736595,-93.65619000000001,-6,1,44.736595
16468,CAINC1-1,27029,2018,Thousands of dollars,3,"386,791",Clearwater,MN,55320,45.387625,-94.0599,-6,1,45.387625
16478,CAINC1-1,27031,2018,Thousands of dollars,3,"291,350",Cook,MN,55723,47.854987,-92.77077,-6,1,47.854987
16488,CAINC1-1,27033,2018,Thousands of dollars,3,"547,452",Cottonwood,MN,56229,44.609097999999996,-95.70555,-6,1,44.609097999999996
16498,CAINC1-1,27037,2018,Thousands of dollars,3,"25,707,656",Dakota,MN,55925,43.910928999999996,-91.39015,-6,1,43.910928999999996
16508,CAINC1-1,27043,2018,Thousands of dollars,3,"589,230",Faribault,MN,55021,44.294779999999996,-93.28732,-6,1,44.294779999999996
16518,CAINC1-1,27047,2018,Thousands of dollars,3,"1,384,093",Freeborn,MN,56032,43.766208,-93.56339,-6,1,43.766208
16528,CAINC1-1,27049,2018,Thousands of dollars,3,"2,494,156",Goodhue,MN,55027,44.408846000000004,-92.63311999999999,-6,1,44.408846000000004
16538,CAINC1-1,27055,2018,Thousands of dollars,3,"959,012",Houston,MN,55943,43.769776,-91.57534,-6,1,43.769776
16548,CAINC1-1,27059,2018,Thousands of dollars,3,"1,777,640",Isanti,MN,55040,45.470239,-93.27946999999999,-6,1,45.470239
16558,CAINC1-1,27061,2018,Thousands of dollars,3,"2,002,454",Itasca,MN,56460,47.239049,-95.26537900000001,-6,1,47.239049
16568,CAINC1-1,27063,2018,Thousands of dollars,3,"527,293",Jackson,MN,56143,43.625811,-95.00447,-6,1,43.625811
16578,CAINC1-1,27067,2018,Thousands of dollars,3,"2,288,741",Kandiyohi,MN,56251,45.133103000000006,-94.91976,-6,1,45.133103000000006
16588,CAINC1-1,27079,2018,Thousands of dollars,3,"1,404,165",Le Sueur,MN,56058,44.449976,-93.90513,-6,1,44.449976
16598,CAINC1-1,27087,2018,Thousands of dollars,3,"194,988",Mahnomen,MN,56557,47.330624,-95.87671999999999,-6,1,47.330624
16608,CAINC1-1,27089,2018,Thousands of dollars,3,"485,527",Marshall,MN,56258,44.446884999999995,-95.77280999999999,-6,1,44.446884999999995
16618,CAINC1-1,27103,2018,Thousands of dollars,3,"1,685,679",Nicollet,MN,56074,44.331757,-94.19561,-6,1,44.331757
16628,CAINC1-1,27113,2018,Thousands of dollars,3,"799,370",Pennington,MN,56663,47.464399,-94.44806,-6,1,47.464399
16638,CAINC1-1,27117,2018,Thousands of dollars,3,"513,858",Pipestone,MN,56164,44.020814,-96.32473,-6,1,44.020814
16648,CAINC1-1,27129,2018,Thousands of dollars,3,"757,842",Renville,MN,56284,44.783251,-95.20682,-6,1,44.783251
16658,CAINC1-1,27131,2018,Thousands of dollars,3,"2,909,346",Rice,MN,56367,45.745266,-94.18176,-6,1,45.745266
16668,CAINC1-1,27135,2018,Thousands of dollars,3,"752,386",Roseau,MN,56751,48.817919,-95.75166999999999,-6,1,48.817919
16678,CAINC1-1,27151,2018,Thousands of dollars,3,"474,597",Swift,MN,56682,48.769244,-95.747559,-6,1,48.769244
16688,CAINC1-1,27157,2018,Thousands of dollars,3,"1,046,968",Wabasha,MN,55981,44.374261,-92.04204,-6,1,44.374261
16706,CAINC1-1,27159,2018,Thousands of dollars,3,"546,196",Wadena,MN,56483,46.439079,-95.137497,-6,1,46.439079
16718,CAINC1-1,27161,2018,Thousands of dollars,3,"794,847",Waseca,MN,56093,44.067673,-93.5103,-6,1,44.067673
16728,CAINC1-1,27169,2018,Thousands of dollars,3,"2,438,832",Winona,MN,55987,44.033867,-91.65106,-6,1,44.033867
16738,CAINC1-1,27171,2018,Thousands of dollars,3,"6,881,021",Wright,MN,55798,46.723028,-92.96594,-6,1,46.723028
16748,CAINC1-1,28009,2018,Thousands of dollars,3,"250,853",Benton,MS,39039,32.832943,-90.21951,-6,1,32.832943
16758,CAINC1-1,28027,2018,Thousands of dollars,3,"804,904",Coahoma,MS,38617,34.362728999999995,-90.5035,-6,1,34.362728999999995
16776,CAINC1-1,28043,2018,Thousands of dollars,3,"751,178",Grenada,MS,38902,33.824113,-89.794687,-6,1,33.824113
17052,CAINC1-1,28059,2018,Thousands of dollars,3,"5,340,271",Jackson,MS,39219,32.252146999999994,-90.214865,-6,1,32.252146999999994
17128,CAINC1-1,28073,2018,Thousands of dollars,3,"2,474,496",Lamar,MS,38642,34.926974,-89.33214,-6,1,34.926974
17138,CAINC1-1,28075,2018,Thousands of dollars,3,"2,836,477",Lauderdale,MS,39335,32.517145,-88.51801,-6,1,32.517145
17148,CAINC1-1,28077,2018,Thousands of dollars,3,"431,334",Lawrence,MS,39336,32.307815000000005,-89.26169,-6,1,32.307815000000005
17166,CAINC1-1,28089,2018,Thousands of dollars,3,"6,781,598",Madison,MS,39130,32.642448,-90.090683,-6,1,32.642448
17178,CAINC1-1,28091,2018,Thousands of dollars,3,"930,806",Marion,MS,39342,32.336743,-88.616297,-6,1,32.336743
17188,CAINC1-1,28101,2018,Thousands of dollars,3,"741,949",Newton,MS,39345,32.317298,-89.14483,-6,1,32.317298
17198,CAINC1-1,28115,2018,Thousands of dollars,3,"1,046,801",Pontotoc,MS,38863,34.236312,-89.00425,-6,1,34.236312
17208,CAINC1-1,28117,2018,Thousands of dollars,3,"760,287",Prentiss,MS,39474,31.605946000000003,-89.86086,-6,1,31.605946000000003
17218,CAINC1-1,28119,2018,Thousands of dollars,3,"206,360",Quitman,MS,39355,32.057969,-88.67069000000001,-6,1,32.057969
17228,CAINC1-1,28123,2018,Thousands of dollars,3,"896,272",Scott,MS,38772,33.569415,-91.0742,-6,1,33.569415
17238,CAINC1-1,28133,2018,Thousands of dollars,3,"810,886",Sunflower,MS,38778,33.555234000000006,-90.51366999999999,-6,1,33.555234000000006
17248,CAINC1-1,28141,2018,Thousands of dollars,3,"654,579",Tishomingo,MS,38873,34.652269,-88.23581,-6,1,34.652269
17258,CAINC1-1,28143,2018,Thousands of dollars,3,"324,192",Tunica,MS,38676,34.687733,-90.36723,-6,1,34.687733
17268,CAINC1-1,28145,2018,Thousands of dollars,3,"914,779",Union,MS,39365,32.588341,-89.13046999999999,-6,1,32.588341
17278,CAINC1-1,28147,2018,Thousands of dollars,3,"457,516",Walthall,MS,39771,33.606148,-89.27526999999999,-6,1,33.606148
17288,CAINC1-1,28151,2018,Thousands of dollars,3,"1,694,353",Washington,MS,39190,31.470602000000003,-91.404404,-6,1,31.470602000000003
17298,CAINC1-1,29015,2018,Thousands of dollars,3,"716,848",Benton,MO,63736,37.093104,-89.53997,-6,1,37.093104
17308,CAINC1-1,29023,2018,Thousands of dollars,3,"1,523,088",Butler,MO,64730,38.259528,-94.32316999999999,-6,1,38.259528
17318,CAINC1-1,29029,2018,Thousands of dollars,3,"1,703,728",Camden,MO,64017,39.203641,-94.03213000000001,-6,1,39.203641
17352,CAINC1-1,29031,2018,Thousands of dollars,3,"3,547,615",Cape Girardeau,MO,63701,37.32564,-89.5659,-6,1,37.32564
17368,CAINC1-1,29045,2018,Thousands of dollars,3,"233,104",Clark,MO,65243,39.278949,-92.36456,-6,1,39.278949
17386,CAINC1-1,29047,2018,Thousands of dollars,3,"11,720,425",Clay,MO,63588,36.018996,-90.159327,-6,1,36.018996
17398,CAINC1-1,29049,2018,Thousands of dollars,3,"848,315",Clinton,MO,64735,38.364214000000004,-93.76042,-6,1,38.364214000000004
17408,CAINC1-1,29071,2018,Thousands of dollars,3,"4,569,622",Franklin,MO,65250,39.024196,-92.81278,-6,1,39.024196
17418,CAINC1-1,29073,2018,Thousands of dollars,3,"576,011",Gasconade,MO,65036,38.675775,-91.58968,-6,1,38.675775
17428,CAINC1-1,29075,2018,Thousands of dollars,3,"272,560",Gentry,MO,64453,40.338159999999995,-94.44985,-6,1,40.338159999999995
17438,CAINC1-1,29087,2018,Thousands of dollars,3,"199,326",Holt,MO,64048,39.446090000000005,-94.35335,-6,1,39.446090000000005
17448,CAINC1-1,29095,2018,Thousands of dollars,3,"32,550,739",Jackson,MO,63755,37.413716,-89.65428,-6,1,37.413716
17458,CAINC1-1,29097,2018,Thousands of dollars,3,"4,959,311",Jasper,MO,64755,37.326648,-94.31031999999999,-6,1,37.326648
17468,CAINC1-1,29105,2018,Thousands of dollars,3,"1,289,813",Laclede,MO,64651,39.785731,-93.17676,-6,1,39.785731
17478,CAINC1-1,29113,2018,Thousands of dollars,3,"2,300,333",Lincoln,MO,65338,38.34463,-93.26634,-6,1,38.34463
17488,CAINC1-1,29115,2018,Thousands of dollars,3,"468,753",Linn,MO,65051,38.477953,-91.81695,-6,1,38.477953
17498,CAINC1-1,29121,2018,Thousands of dollars,3,"630,416",Macon,MO,63552,39.747735999999996,-92.46878000000001,-6,1,39.747735999999996
17508,CAINC1-1,29123,2018,Thousands of dollars,3,"436,980",Madison,MO,65263,39.460421999999994,-92.22005,-6,1,39.460421999999994
17518,CAINC1-1,29129,2018,Thousands of dollars,3,"115,977",Mercer,MO,64661,40.522402,-93.54965,-6,1,40.522402
17528,CAINC1-1,29131,2018,Thousands of dollars,3,"890,401",Miller,MO,65707,37.220289,-93.84181,-6,1,37.220289
17538,CAINC1-1,29143,2018,Thousands of dollars,3,"599,473",New Madrid,MO,63869,36.59793,-89.54435,-6,1,36.59793
17548,CAINC1-1,29149,2018,Thousands of dollars,3,"312,151",Oregon,MO,64473,39.986725,-95.09514,-6,1,39.986725
17558,CAINC1-1,29153,2018,Thousands of dollars,3,"277,992",Ozark,MO,65721,37.021086,-93.21540999999999,-6,1,37.021086
17568,CAINC1-1,29157,2018,Thousands of dollars,3,"791,590",Perry,MO,63462,39.430693,-91.68647,-6,1,39.430693
17586,CAINC1-1,29167,2018,Thousands of dollars,3,"1,099,110",Polk,MO,65727,37.789907,-93.27802,-6,1,37.789907
17598,CAINC1-1,29179,2018,Thousands of dollars,3,"212,491",Reynolds,MO,63666,37.327153,-91.024337,-6,1,37.327153
17608,CAINC1-1,29211,2018,Thousands of dollars,3,"236,718",Sullivan,MO,63080,38.200244,-91.14089,-6,1,38.200244
17626,CAINC1-1,29221,2018,Thousands of dollars,3,"732,244",Washington,MO,64930,39.781172999999995,-94.600647,-6,1,39.781172999999995
17638,CAINC1-1,29227,2018,Thousands of dollars,3,"71,663",Worth,MO,64499,40.402118,-94.44024,-6,1,40.402118
17648,CAINC1-1,30011,2018,Thousands of dollars,3,"52,732",Carter,MT,59420,47.834943,-110.98801,-7,1,47.834943
17658,CAINC1-1,30013,2018,Thousands of dollars,3,"3,911,977",Cascade,MT,59421,47.223693,-111.70821000000001,-7,1,47.223693
17668,CAINC1-1,30017,2018,Thousands of dollars,3,"520,998",Custer,MT,59024,46.095217,-107.6318,-7,1,46.095217
17678,CAINC1-1,30023,2018,Thousands of dollars,3,"362,797",Deer Lodge,MT,59722,46.392658000000004,-112.7369,-7,1,46.392658000000004
17688,CAINC1-1,30025,2018,Thousands of dollars,3,"143,050",Fallon,MT,59326,46.810255,-105.04391000000001,-7,1,46.810255
17698,CAINC1-1,30053,2018,Thousands of dollars,3,"710,768",Lincoln,MT,59639,46.973643,-112.62546999999999,-7,1,46.973643
17764,CAINC1-1,30063,2018,Thousands of dollars,3,"5,908,024",Missoula,MT,59802,46.896821,-113.95551,-7,1,46.896821
17788,CAINC1-1,30065,2018,Thousands of dollars,3,"205,409",Musselshell,MT,59059,46.455469,-108.0903,-7,1,46.455469
17798,CAINC1-1,30081,2018,Thousands of dollars,3,"1,962,159",Ravalli,MT,59863,47.594957,-114.10144299999999,-7,1,47.594957
17808,CAINC1-1,30083,2018,Thousands of dollars,3,"665,024",Richland,MT,59260,48.717859000000004,-106.07898999999999,-7,1,48.717859000000004
17818,CAINC1-1,30087,2018,Thousands of dollars,3,"399,429",Rosebud,MT,59347,46.632549,-106.39641,-7,1,46.632549
17828,CAINC1-1,30089,2018,Thousands of dollars,3,"419,225",Sanders,MT,59076,46.2644,-107.07438,-7,1,46.2644
17838,CAINC1-1,30091,2018,Thousands of dollars,3,"161,046",Sheridan,MT,59749,45.528809,-112.1097,-7,1,45.528809
17848,CAINC1-1,30097,2018,Thousands of dollars,3,"172,279",Sweet Grass,MT,59484,48.979905,-111.92471,-7,1,48.979905
17858,CAINC1-1,30109,2018,Thousands of dollars,3,"40,276",Wibaux,MT,59353,46.969132,-104.19232,-7,1,46.969132
17868,CAINC1-1,31001,2018,Thousands of dollars,3,"1,529,191",Adams,NE,68301,40.472055,-96.52637,-6,1,40.472055
17878,CAINC1-1,31005,2018,Thousands of dollars,3,"21,239",Arthur,NE,69121,41.569138,-101.68816,-7,1,41.569138
17888,CAINC1-1,31047,2018,Thousands of dollars,3,"1,043,471",Dawson,NE,68337,40.111270000000005,-95.83868000000001,-6,1,40.111270000000005
17898,CAINC1-1,31051,2018,Thousands of dollars,3,"237,163",Dixon,NE,68732,42.459804999999996,-96.98116,-6,1,42.459804999999996
17908,CAINC1-1,31053,2018,Thousands of dollars,3,"1,714,954",Dodge,NE,68633,41.706209,-96.89662,-6,1,41.706209
17918,CAINC1-1,31055,2018,Thousands of dollars,3,"35,390,833",Douglas,NE,68344,40.56985,-96.3806,-6,1,40.56985
17928,CAINC1-1,31061,2018,Thousands of dollars,3,"141,012",Franklin,NE,68939,40.103792,-98.94389,-6,1,40.103792
17938,CAINC1-1,31075,2018,Thousands of dollars,3,"29,991",Grant,NE,69140,40.850141,-101.75824,-7,1,40.850141
17948,CAINC1-1,31077,2018,Thousands of dollars,3,"107,073",Greeley,NE,68842,41.517346999999994,-98.49117,-6,1,41.517346999999994
17958,CAINC1-1,31097,2018,Thousands of dollars,3,"175,045",Johnson,NE,68378,40.394814000000004,-96.01864,-6,1,40.394814000000004
17992,CAINC1-1,31099,2018,Thousands of dollars,3,"349,045",Kearney,NE,68849,40.849654,-99.074058,-6,1,40.849654
18008,CAINC1-1,31105,2018,Thousands of dollars,3,"161,486",Kimball,NE,69145,41.24058,-103.6608,-7,1,41.24058
18250,CAINC1-1,31111,2018,Thousands of dollars,3,"1,678,714",Lincoln,NE,68503,40.823602,-96.67551999999999,-6,1,40.823602
18318,CAINC1-1,31119,2018,Thousands of dollars,3,"1,759,383",Madison,NE,68748,41.836046,-97.45212,-6,1,41.836046
18328,CAINC1-1,31123,2018,Thousands of dollars,3,"258,671",Morrill,NE,69358,41.986025,-103.95935,-7,1,41.986025
18338,CAINC1-1,31127,2018,Thousands of dollars,3,"325,699",Nemaha,NE,68414,40.321940000000005,-95.67683000000001,-6,1,40.321940000000005
18344,CAINC1-1,31131,2018,Thousands of dollars,3,"851,241",Otoe,NE,68417,40.728493,-96.09515999999999,-6,1,40.728493
18358,CAINC1-1,31139,2018,Thousands of dollars,3,"387,713",Pierce,NE,68767,42.200994,-97.54527,-6,1,42.200994
18368,CAINC1-1,31143,2018,Thousands of dollars,3,"271,325",Polk,NE,68654,41.068368,-97.78036,-6,1,41.068368
18378,CAINC1-1,31159,2018,Thousands of dollars,3,"878,888",Seward,NE,68434,40.909197,-97.11206,-6,1,40.909197
18388,CAINC1-1,31167,2018,Thousands of dollars,3,"261,205",Stanton,NE,68779,41.955428999999995,-97.21583000000001,-6,1,41.955428999999995
18398,CAINC1-1,31173,2018,Thousands of dollars,3,"269,515",Thurston,NE,68062,42.187938,-96.67747,-6,1,42.187938
18408,CAINC1-1,31175,2018,Thousands of dollars,3,"197,346",Valley,NE,68064,41.328148999999996,-96.3396,-6,1,41.328148999999996
18418,CAINC1-1,31177,2018,Thousands of dollars,3,"1,150,828",Washington,NE,68068,41.396848,-96.20759,-6,1,41.396848
18428,CAINC1-1,31179,2018,Thousands of dollars,3,"404,799",Wayne,NE,68787,42.221382,-97.03303000000001,-6,1,42.221382
18438,CAINC1-1,31185,2018,Thousands of dollars,3,"677,722",York,NE,68467,40.865237,-97.58884,-6,1,40.865237
18464,CAINC1-1,32007,2018,Thousands of dollars,3,"2,463,989",Elko,NV,89803,40.81488,-115.79241,-8,1,40.81488
18478,CAINC1-1,32011,2018,Thousands of dollars,3,"77,754",Eureka,NV,89316,39.717627,-116.02944,-8,1,39.717627
18488,CAINC1-1,33009,2018,Thousands of dollars,3,"5,543,486",Grafton,NH,3240,43.568328,-71.96422,-5,1,43.568328
18498,CAINC1-1,33013,2018,Thousands of dollars,3,"8,673,120",Merrimack,NH,3054,42.858053000000005,-71.51216,-5,1,42.858053000000005
18508,CAINC1-1,33017,2018,Thousands of dollars,3,"6,575,667",Strafford,NH,3884,43.257919,-71.17701,-5,1,43.257919
18518,CAINC1-1,33019,2018,Thousands of dollars,3,"2,274,776",Sullivan,NH,3445,43.009728,-72.19383,-5,1,43.009728
18528,CAINC1-1,34005,2018,Thousands of dollars,3,"27,237,917",Burlington,NJ,8016,40.06834,-74.84463000000001,-5,1,40.06834
18570,CAINC1-1,34007,2018,Thousands of dollars,3,"27,211,175",Camden,NJ,8103,39.936178999999996,-75.11513000000001,-5,1,39.936178999999996
18588,CAINC1-1,34009,2018,Thousands of dollars,3,"5,571,180",Cape May,NJ,8204,38.963652,-74.92319,-5,1,38.963652
18598,CAINC1-1,34023,2018,Thousands of dollars,3,"50,406,435",Middlesex,NJ,8846,40.574552000000004,-74.50187,-5,1,40.574552000000004
18608,CAINC1-1,34031,2018,Thousands of dollars,3,"25,194,914",Passaic,NJ,7055,40.857384,-74.12899,-5,1,40.857384
18618,CAINC1-1,34033,2018,Thousands of dollars,3,"3,018,397",Salem,NJ,8079,39.549912,-75.43943,-5,1,39.549912
18636,CAINC1-1,34035,2018,Thousands of dollars,3,"34,722,210",Somerset,NJ,8875,40.580918,-74.711731,-5,1,40.580918
18648,CAINC1-1,34037,2018,Thousands of dollars,3,"8,610,758",Sussex,NJ,7461,41.229754,-74.60203,-5,1,41.229754
18658,CAINC1-1,34039,2018,Thousands of dollars,3,"38,009,422",Union,NJ,7083,40.695401000000004,-74.26933000000001,-5,1,40.695401000000004
18668,CAINC1-1,34041,2018,Thousands of dollars,3,"5,851,275",Warren,NJ,7059,40.633652000000005,-74.5008,-5,1,40.633652000000005
18678,CAINC1-1,35001,2018,Thousands of dollars,3,"29,767,357",Bernalillo,NM,87004,35.321509999999996,-106.55322,-7,1,35.321509999999996
18688,CAINC1-1,35027,2018,Thousands of dollars,3,"802,772",Lincoln,NM,88338,33.479136,-105.35812,-7,1,33.479136
18706,CAINC1-1,35028,2018,Thousands of dollars,3,"1,358,965",Los Alamos,NM,87544,35.86849,-106.29536,-7,1,35.86849
18718,CAINC1-1,35029,2018,Thousands of dollars,3,"770,204",Luna,NM,87824,33.879513,-108.91977,-7,1,33.879513
18728,CAINC1-1,35033,2018,Thousands of dollars,3,"171,861",Mora,NM,87732,35.971938,-105.34137,-7,1,35.971938
18738,CAINC1-1,35037,2018,Thousands of dollars,3,"327,926",Quay,NM,88433,34.916697,-103.778184,-7,1,34.916697
18748,CAINC1-1,35047,2018,Thousands of dollars,3,"957,046",San Miguel,NM,88058,32.41815,-106.820075,-7,1,32.41815
18846,CAINC1-1,35049,2018,Thousands of dollars,3,"8,790,396",Santa Fe,NM,87509,35.521181,-105.981847,-7,1,35.521181
18878,CAINC1-1,35053,2018,Thousands of dollars,3,"576,191",Socorro,NM,87801,33.953237,-106.93722,-7,1,33.953237
18888,CAINC1-1,35055,2018,Thousands of dollars,3,"1,245,782",Taos,NM,87571,36.414941999999996,-105.5808,-7,1,36.414941999999996
19298,CAINC1-1,36001,2018,Thousands of dollars,3,"18,590,359",Albany,NY,12243,42.614852,-73.970812,-5,1,42.614852
19408,CAINC1-1,36003,2018,Thousands of dollars,3,"1,611,599",Allegany,NY,14706,42.10143,-78.51586999999999,-5,1,42.10143
19618,CAINC1-1,36005,2018,Thousands of dollars,3,"53,644,875",Bronx,NY,10451,40.819728999999995,-73.9223,-5,1,40.819728999999995
19678,CAINC1-1,36009,2018,Thousands of dollars,3,"3,053,379",Cattaraugus,NY,14719,42.329183,-78.87436,-5,1,42.329183
19688,CAINC1-1,36011,2018,Thousands of dollars,3,"3,255,235",Cayuga,NY,13034,42.912846,-76.70818,-5,1,42.912846
19698,CAINC1-1,36013,2018,Thousands of dollars,3,"5,159,076",Chautauqua,NY,14722,42.187468,-79.450523,-5,1,42.187468
19708,CAINC1-1,36015,2018,Thousands of dollars,3,"3,735,959",Chemung,NY,14825,42.043018,-76.62459,-5,1,42.043018
19718,CAINC1-1,36019,2018,Thousands of dollars,3,"3,504,447",Clinton,NY,13323,43.049535999999996,-75.37656,-5,1,43.049535999999996
19728,CAINC1-1,36023,2018,Thousands of dollars,3,"1,948,615",Cortland,NY,13045,42.591109,-76.19216999999999,-5,1,42.591109
19738,CAINC1-1,36031,2018,Thousands of dollars,3,"1,712,160",Essex,NY,12936,44.259479,-73.40590999999999,-5,1,44.259479
19748,CAINC1-1,36033,2018,Thousands of dollars,3,"1,879,955",Franklin,NY,13775,42.333285,-75.16086,-5,1,42.333285
19758,CAINC1-1,36035,2018,Thousands of dollars,3,"2,329,269",Fulton,NY,13069,43.32347,-76.40029,-5,1,43.32347
19768,CAINC1-1,36039,2018,Thousands of dollars,3,"2,226,054",Greene,NY,13778,42.336771,-75.75964,-5,1,42.336771
19778,CAINC1-1,36041,2018,Thousands of dollars,3,"238,356",Hamilton,NY,13346,42.820826000000004,-75.54012,-5,1,42.820826000000004
19796,CAINC1-1,36043,2018,Thousands of dollars,3,"2,551,992",Herkimer,NY,13350,43.038149,-74.9846,-5,1,43.038149
19808,CAINC1-1,36045,2018,Thousands of dollars,3,"5,235,284",Jefferson,NY,12093,42.496939000000005,-74.62813,-5,1,42.496939000000005
19818,CAINC1-1,36049,2018,Thousands of dollars,3,"1,183,419",Lewis,NY,12950,44.322102,-73.5404,-5,1,44.322102
19828,CAINC1-1,36051,2018,Thousands of dollars,3,"2,906,201",Livingston,NY,12541,42.142068,-73.75739899999999,-5,1,42.142068
19846,CAINC1-1,36053,2018,Thousands of dollars,3,"3,113,430",Madison,NY,13396,42.839696999999994,-75.544322,-5,1,42.839696999999994
19858,CAINC1-1,36055,2018,Thousands of dollars,3,"39,329,779",Monroe,NY,10950,41.323547,-74.19530999999999,-5,1,41.323547
19868,CAINC1-1,36057,2018,Thousands of dollars,3,"2,044,461",Montgomery,NY,12549,41.520396000000005,-74.24712,-5,1,41.520396000000005
19886,CAINC1-1,36059,2018,Thousands of dollars,3,"121,786,175",Nassau,NY,12081,42.59362,-73.566328,-5,1,42.59362
21218,CAINC1-1,36061,2018,Thousands of dollars,3,"311,145,251",New York,NY,10170,40.752859,-73.97608000000001,-5,1,40.752859
21558,CAINC1-1,36065,2018,Thousands of dollars,3,"10,255,682",Oneida,NY,13421,43.079634999999996,-75.64678,-5,1,43.079634999999996
21568,CAINC1-1,36069,2018,Thousands of dollars,3,"5,849,385",Ontario,NY,14519,43.227921,-77.30096999999999,-5,1,43.227921
21578,CAINC1-1,36075,2018,Thousands of dollars,3,"4,719,498",Oswego,NY,13126,43.449201,-76.47991999999999,-5,1,43.449201
21588,CAINC1-1,36083,2018,Thousands of dollars,3,"7,848,451",Rensselaer,NY,12144,42.63738,-73.72587,-5,1,42.63738
21678,CAINC1-1,36093,2018,Thousands of dollars,3,"7,705,390",Schenectady,NY,12303,42.769009000000004,-73.93619,-5,1,42.769009000000004
21708,CAINC1-1,36095,2018,Thousands of dollars,3,"1,276,633",Schoharie,NY,12157,42.668825,-74.30134,-5,1,42.668825
21718,CAINC1-1,36117,2018,Thousands of dollars,3,"4,133,665",Wayne,NY,14893,42.474143,-77.097713,-5,1,42.474143
21728,CAINC1-1,36121,2018,Thousands of dollars,3,"1,605,511",Wyoming,NY,14591,42.829405,-78.08887,-5,1,42.829405
21738,CAINC1-1,37001,2018,Thousands of dollars,3,"6,650,506",Alamance,NC,27201,36.031836,-79.48564300000001,-5,1,36.031836
21748,CAINC1-1,37003,2018,Thousands of dollars,3,"1,371,872",Alexander,NC,28701,35.712998999999996,-82.63479,-5,1,35.712998999999996
21758,CAINC1-1,37013,2018,Thousands of dollars,3,"1,962,531",Beaufort,NC,28516,34.769532,-76.64783,-5,1,34.769532
21768,CAINC1-1,37019,2018,Thousands of dollars,3,"5,920,033",Brunswick,NC,28424,34.290715999999996,-78.69941700000001,-5,1,34.290715999999996
21778,CAINC1-1,37029,2018,Thousands of dollars,3,"480,389",Camden,NC,27921,36.344333,-76.16595,-5,1,36.344333
21788,CAINC1-1,37035,2018,Thousands of dollars,3,"7,132,713",Catawba,NC,28609,35.689806,-81.06694,-5,1,35.689806
21798,CAINC1-1,37039,2018,Thousands of dollars,3,"907,936",Cherokee,NC,28719,35.50359,-83.29698,-5,1,35.50359
21808,CAINC1-1,37045,2018,Thousands of dollars,3,"3,643,607",Cleveland,NC,27013,35.73956,-80.69407,-5,1,35.73956
21818,CAINC1-1,37047,2018,Thousands of dollars,3,"1,800,719",Columbus,NC,28722,35.248689,-82.18160999999999,-5,1,35.248689
21828,CAINC1-1,37051,2018,Thousands of dollars,3,"12,922,913",Cumberland,NC,28331,35.150896,-78.915788,-5,1,35.150896
21838,CAINC1-1,37053,2018,Thousands of dollars,3,"1,250,865",Currituck,NC,27929,36.433902,-75.97921,-5,1,36.433902
21848,CAINC1-1,37057,2018,Thousands of dollars,3,"6,572,555",Davidson,NC,28036,35.490772,-80.82576,-5,1,35.490772
21978,CAINC1-1,37063,2018,Thousands of dollars,3,"15,890,620",Durham,NC,27712,36.087738,-78.92313,-5,1,36.087738
22026,CAINC1-1,37069,2018,Thousands of dollars,3,"2,433,229",Franklin,NC,28744,35.117298999999996,-83.295244,-5,1,35.117298999999996
22038,CAINC1-1,37071,2018,Thousands of dollars,3,"8,944,138",Gaston,NC,27832,36.502541,-77.68887,-5,1,36.502541
22048,CAINC1-1,37073,2018,Thousands of dollars,3,"429,995",Gates,NC,27937,36.501152000000005,-76.78039,-5,1,36.501152000000005
22058,CAINC1-1,37075,2018,Thousands of dollars,3,"282,198",Graham,NC,27253,36.031837,-79.37815,-5,1,36.031837
22068,CAINC1-1,37083,2018,Thousands of dollars,3,"1,835,186",Halifax,NC,27839,36.310967,-77.57821,-5,1,36.310967
22086,CAINC1-1,37089,2018,Thousands of dollars,3,"5,102,136",Henderson,NC,27536,36.340681,-78.39425,-5,1,36.340681
22098,CAINC1-1,37091,2018,Thousands of dollars,3,"760,796",Hertford,NC,27944,36.157292,-76.4275,-5,1,36.157292
22108,CAINC1-1,37099,2018,Thousands of dollars,3,"1,452,966",Jackson,NC,27845,36.366571,-77.44254000000001,-5,1,36.366571
22126,CAINC1-1,37107,2018,Thousands of dollars,3,"2,260,454",Lenoir,NC,28645,35.934783,-81.54476,-5,1,35.934783
22138,CAINC1-1,37113,2018,Thousands of dollars,3,"1,396,257",Macon,NC,27551,36.474897999999996,-78.04505,-5,1,36.474897999999996
22148,CAINC1-1,37115,2018,Thousands of dollars,3,"741,296",Madison,NC,27025,36.383107,-79.97451,-5,1,36.383107
22166,CAINC1-1,37157,2018,Thousands of dollars,3,"3,369,499",Rockingham,NC,28380,34.994152,-79.767341,-5,1,34.994152
22178,CAINC1-1,37169,2018,Thousands of dollars,3,"1,712,121",Stokes,NC,27884,35.700448,-77.27014,-5,1,35.700448
22188,CAINC1-1,37187,2018,Thousands of dollars,3,"418,283",Washington,NC,27889,35.560439,-77.03459000000001,-5,1,35.560439
22222,CAINC1-1,37195,2018,Thousands of dollars,3,"3,254,241",Wilson,NC,27893,35.715315000000004,-77.91989000000001,-5,1,35.715315000000004
22238,CAINC1-1,38001,2018,Thousands of dollars,3,"110,160",Adams,ND,58210,48.391059000000006,-98.11173000000001,-6,1,48.391059000000006
22248,CAINC1-1,38009,2018,Thousands of dollars,3,"398,218",Bottineau,ND,58318,48.864955,-100.41403000000001,-6,1,48.864955
22258,CAINC1-1,38011,2018,Thousands of dollars,3,"182,580",Bowman,ND,58623,46.182798999999996,-103.40453000000001,-7,1,46.182798999999996
22268,CAINC1-1,38019,2018,Thousands of dollars,3,"286,156",Cavalier,ND,58220,48.797042,-97.69887,-6,1,48.797042
22278,CAINC1-1,38021,2018,Thousands of dollars,3,"268,637",Dickey,ND,58431,46.522016,-98.48352,-6,1,46.522016
22288,CAINC1-1,38033,2018,Thousands of dollars,3,"65,065",Golden Valley,ND,58541,47.396933000000004,-102.08106,-7,1,47.396933000000004
22338,CAINC1-1,38035,2018,Thousands of dollars,3,"3,640,652",Grand Forks,ND,58206,47.933481,-97.394446,-6,1,47.933481
22358,CAINC1-1,38041,2018,Thousands of dollars,3,"119,833",Hettinger,ND,58639,46.043733,-102.60353,-7,1,46.043733
22368,CAINC1-1,38057,2018,Thousands of dollars,3,"479,204",Mercer,ND,58559,47.429223,-100.72662,-6,1,47.429223
22378,CAINC1-1,38067,2018,Thousands of dollars,3,"402,427",Pembina,ND,58271,48.943042,-97.27924,-6,1,48.943042
22388,CAINC1-1,38079,2018,Thousands of dollars,3,"517,578",Rolette,ND,58366,48.653781,-99.91768,-6,1,48.653781
22398,CAINC1-1,38091,2018,Thousands of dollars,3,"105,070",Steele,ND,58482,46.862714000000004,-99.9205,-6,1,46.862714000000004
22408,CAINC1-1,38095,2018,Thousands of dollars,3,"156,578",Towner,ND,58788,48.363285,-100.47476999999999,-6,1,48.363285
22418,CAINC1-1,39005,2018,Thousands of dollars,3,"2,079,015",Ashland,OH,44805,40.867016,-82.31514,-5,1,40.867016
22436,CAINC1-1,39007,2018,Thousands of dollars,3,"3,772,629",Ashtabula,OH,44005,41.730146000000005,-80.955313,-5,1,41.730146000000005
22448,CAINC1-1,39009,2018,Thousands of dollars,3,"2,180,392",Athens,OH,45701,39.322846999999996,-82.09728,-5,1,39.322846999999996
22458,CAINC1-1,39013,2018,Thousands of dollars,3,"2,904,705",Belmont,OH,43718,40.028171,-81.00679000000001,-5,1,40.028171
22468,CAINC1-1,39017,2018,Thousands of dollars,3,"18,044,169",Butler,OH,44822,40.561377,-82.41237,-5,1,40.561377
22478,CAINC1-1,39019,2018,Thousands of dollars,3,"1,068,250",Carroll,OH,43112,39.803993,-82.70953,-5,1,39.803993
22488,CAINC1-1,39027,2018,Thousands of dollars,3,"1,901,514",Clinton,OH,44216,40.936655,-81.5981,-5,1,40.936655
22498,CAINC1-1,39029,2018,Thousands of dollars,3,"3,932,872",Columbiana,OH,44408,40.884299,-80.68652,-5,1,40.884299
22508,CAINC1-1,39031,2018,Thousands of dollars,3,"1,283,426",Coshocton,OH,43812,40.270198,-81.86761,-5,1,40.270198
22518,CAINC1-1,39039,2018,Thousands of dollars,3,"1,565,758",Defiance,OH,43512,41.29037,-84.36539,-5,1,41.29037
22528,CAINC1-1,39041,2018,Thousands of dollars,3,"15,184,294",Delaware,OH,43015,40.295925,-83.06968,-5,1,40.295925
22546,CAINC1-1,39045,2018,Thousands of dollars,3,"7,189,722",Fairfield,OH,45018,39.440956,-84.575746,-5,1,39.440956
22558,CAINC1-1,39047,2018,Thousands of dollars,3,"1,115,681",Fayette,OH,43521,41.661429999999996,-84.29732,-5,1,41.661429999999996
22568,CAINC1-1,39049,2018,Thousands of dollars,3,"65,757,465",Franklin,OH,45005,39.550241,-84.3087,-5,1,39.550241
22578,CAINC1-1,39051,2018,Thousands of dollars,3,"1,916,856",Fulton,OH,43321,40.46242,-82.82831,-5,1,40.46242
22644,CAINC1-1,39061,2018,Thousands of dollars,3,"48,747,129",Hamilton,OH,45011,39.404856,-84.52271,-5,1,39.404856
22668,CAINC1-1,39067,2018,Thousands of dollars,3,"580,993",Harrison,OH,45030,39.257936,-84.77001,-5,1,39.257936
22678,CAINC1-1,39071,2018,Thousands of dollars,3,"1,558,807",Highland,OH,45132,39.344299,-83.59926,-5,1,39.344299
22688,CAINC1-1,39077,2018,Thousands of dollars,3,"2,375,959",Huron,OH,44839,41.388534,-82.5568,-5,1,41.388534
22698,CAINC1-1,39079,2018,Thousands of dollars,3,"1,145,660",Jackson,OH,45640,39.034226000000004,-82.63678,-5,1,39.034226000000004
22708,CAINC1-1,39081,2018,Thousands of dollars,3,"2,580,035",Jefferson,OH,44047,41.728451,-80.74507,-5,1,41.728451
22718,CAINC1-1,39091,2018,Thousands of dollars,3,"1,944,229",Logan,OH,43138,39.530972,-82.40801,-5,1,39.530972
22744,CAINC1-1,39093,2018,Thousands of dollars,3,"14,272,917",Lorain,OH,44052,41.459218,-82.1691,-5,1,41.459218
22758,CAINC1-1,39095,2018,Thousands of dollars,3,"19,966,903",Lucas,OH,44843,40.701792,-82.41176999999999,-5,1,40.701792
22768,CAINC1-1,39097,2018,Thousands of dollars,3,"1,822,016",Madison,OH,44057,41.80063,-81.06021,-5,1,41.80063
22802,CAINC1-1,39101,2018,Thousands of dollars,3,"2,447,670",Marion,OH,43302,40.589746999999996,-83.12173,-5,1,40.589746999999996
22826,CAINC1-1,39103,2018,Thousands of dollars,3,"9,946,652",Medina,OH,44256,41.139849,-81.85646,-5,1,41.139849
22854,CAINC1-1,39111,2018,Thousands of dollars,3,"487,522",Monroe,OH,45099,39.440956,-84.575746,-5,1,39.440956
22868,CAINC1-1,39115,2018,Thousands of dollars,3,"480,094",Morgan,OH,45641,38.967813,-82.220469,-5,1,38.967813
22878,CAINC1-1,39117,2018,Thousands of dollars,3,"1,372,725",Morrow,OH,45152,39.350319,-84.11606,-5,1,39.350319
22888,CAINC1-1,39121,2018,Thousands of dollars,3,"391,539",Noble,OH,43924,39.764709,-81.537215,-5,1,39.764709
22898,CAINC1-1,39123,2018,Thousands of dollars,3,"2,103,847",Ottawa,OH,45875,41.020852000000005,-84.04649,-5,1,41.020852000000005
22908,CAINC1-1,39125,2018,Thousands of dollars,3,"772,081",Paulding,OH,45879,41.137873,-84.56376999999999,-5,1,41.137873
22918,CAINC1-1,39127,2018,Thousands of dollars,3,"1,348,878",Perry,OH,44081,41.767394,-81.14287,-5,1,41.767394
22928,CAINC1-1,39133,2018,Thousands of dollars,3,"7,082,160",Portage,OH,43451,41.318284999999996,-83.62835,-5,1,41.318284999999996
22938,CAINC1-1,39139,2018,Thousands of dollars,3,"4,766,061",Richland,OH,43960,40.012984,-80.859104,-5,1,40.012984
22948,CAINC1-1,39141,2018,Thousands of dollars,3,"2,864,800",Ross,OH,45061,39.31235,-84.64828,-5,1,39.31235
22966,CAINC1-1,39143,2018,Thousands of dollars,3,"2,433,558",Sandusky,OH,44871,41.49181,-82.647824,-5,1,41.49181
22978,CAINC1-1,39149,2018,Thousands of dollars,3,"2,214,762",Shelby,OH,44875,40.888988,-82.65598,-5,1,40.888988
22996,CAINC1-1,39157,2018,Thousands of dollars,3,"4,037,153",Tuscarawas,OH,44692,40.398664000000004,-81.40088,-5,1,40.398664000000004
23008,CAINC1-1,39159,2018,Thousands of dollars,3,"3,393,731",Union,OH,45125,39.104387,-84.232422,-5,1,39.104387
23018,CAINC1-1,39161,2018,Thousands of dollars,3,"1,200,003",Van Wert,OH,45891,40.874092,-84.57871,-5,1,40.874092
23028,CAINC1-1,39163,2018,Thousands of dollars,3,"438,127",Vinton,OH,45686,38.99754,-82.36215,-5,1,38.99754
23094,CAINC1-1,39165,2018,Thousands of dollars,3,"13,871,775",Warren,OH,44485,41.237856,-80.84356,-5,1,41.237856
23134,CAINC1-1,39169,2018,Thousands of dollars,3,"5,190,041",Wayne,OH,43466,41.28953,-83.50215,-5,1,41.28953
23148,CAINC1-1,40001,2018,Thousands of dollars,3,"639,054",Adair,OK,74330,36.434328,-95.25511999999999,-6,1,36.434328
23166,CAINC1-1,40005,2018,Thousands of dollars,3,"437,837",Atoka,OK,74542,34.4187,-96.039727,-6,1,34.4187
23178,CAINC1-1,40007,2018,Thousands of dollars,3,"275,459",Beaver,OK,73932,36.710457,-100.47888,-6,1,36.710457
23188,CAINC1-1,40015,2018,Thousands of dollars,3,"1,039,962",Caddo,OK,74729,34.137095,-96.26935999999999,-6,1,34.137095
23198,CAINC1-1,40017,2018,Thousands of dollars,3,"6,479,653",Canadian,OK,74425,35.172538,-95.62824,-6,1,35.172538
23208,CAINC1-1,40019,2018,Thousands of dollars,3,"2,056,808",Carter,OK,73627,35.215996999999994,-99.47006,-6,1,35.215996999999994
23218,CAINC1-1,40021,2018,Thousands of dollars,3,"1,571,072",Cherokee,OK,73728,36.751276000000004,-98.37108,-6,1,36.751276000000004
23228,CAINC1-1,40023,2018,Thousands of dollars,3,"455,700",Choctaw,OK,73020,35.465363,-97.26645,-6,1,35.465363
23238,CAINC1-1,40027,2018,Thousands of dollars,3,"12,487,019",Cleveland,OK,74020,36.260645000000004,-96.39586,-6,1,36.260645000000004
23248,CAINC1-1,40031,2018,Thousands of dollars,3,"4,928,773",Comanche,OK,73529,34.372622,-97.97809000000001,-6,1,34.372622
23258,CAINC1-1,40041,2018,Thousands of dollars,3,"1,369,088",Delaware,OK,74027,36.793303,-95.63631,-6,1,36.793303
23268,CAINC1-1,40043,2018,Thousands of dollars,3,"221,940",Dewey,OK,74029,36.808721999999996,-95.92617,-6,1,36.808721999999996
23278,CAINC1-1,40049,2018,Thousands of dollars,3,"1,053,586",Garvin,OK,74736,33.917419,-94.96494,-6,1,33.917419
23288,CAINC1-1,40053,2018,Thousands of dollars,3,"178,608",Grant,OK,74738,33.917165000000004,-95.4894,-6,1,33.917165000000004
23298,CAINC1-1,40061,2018,Thousands of dollars,3,"407,800",Haskell,OK,74436,35.815497,-95.68608,-6,1,35.815497
23308,CAINC1-1,40073,2018,Thousands of dollars,3,"821,475",Kingfisher,OK,73750,35.856215999999996,-97.93743,-6,1,35.856215999999996
23318,CAINC1-1,40075,2018,Thousands of dollars,3,"304,230",Kiowa,OK,74553,34.708098,-95.90485,-6,1,34.708098
23328,CAINC1-1,40095,2018,Thousands of dollars,3,"545,249",Marshall,OK,73056,36.153239,-97.62988,-6,1,36.153239
23354,CAINC1-1,40101,2018,Thousands of dollars,3,"2,472,402",Muskogee,OK,74402,35.764223,-95.306916,-6,1,35.764223
23368,CAINC1-1,40103,2018,Thousands of dollars,3,"466,736",Noble,OK,73068,35.138421,-97.32689,-6,1,35.138421
23378,CAINC1-1,40105,2018,Thousands of dollars,3,"365,884",Nowata,OK,74048,36.690587,-95.62751,-6,1,36.690587
23388,CAINC1-1,40111,2018,Thousands of dollars,3,"1,280,746",Okmulgee,OK,74447,35.628612,-95.9734,-6,1,35.628612
23398,CAINC1-1,40113,2018,Thousands of dollars,3,"1,607,782",Osage,OK,74054,36.276739,-96.36831,-6,1,36.276739
23408,CAINC1-1,40117,2018,Thousands of dollars,3,"579,349",Pawnee,OK,74058,36.358645,-96.77143000000001,-6,1,36.358645
23418,CAINC1-1,40121,2018,Thousands of dollars,3,"1,675,123",Pittsburg,OK,74560,34.66625,-95.78885,-6,1,34.66625
23436,CAINC1-1,40133,2018,Thousands of dollars,3,"816,435",Seminole,OK,74818,35.162228000000006,-96.609139,-6,1,35.162228000000006
23896,CAINC1-1,40143,2018,Thousands of dollars,3,"40,813,778",Tulsa,OK,74156,36.302391,-95.960472,-6,1,36.302391
24026,CAINC1-1,40145,2018,Thousands of dollars,3,"3,149,058",Wagoner,OK,74467,35.961019,-95.3611,-6,1,35.961019
24038,CAINC1-1,40147,2018,Thousands of dollars,3,"3,285,832",Washington,OK,73093,35.089882,-97.48836999999999,-6,1,35.089882
24048,CAINC1-1,40149,2018,Thousands of dollars,3,"389,412",Washita,OK,73094,35.203206,-98.357423,-6,1,35.203206
24066,CAINC1-1,40153,2018,Thousands of dollars,3,"763,681",Woodward,OK,73802,36.543405,-99.29047,-6,1,36.543405
24078,CAINC1-1,41005,2018,Thousands of dollars,3,"24,730,939",Clackamas,OR,97015,45.416785,-122.52859,-8,1,45.416785
24088,CAINC1-1,41027,2018,Thousands of dollars,3,"1,301,551",Hood River,OR,97031,45.673147,-121.5368,-8,1,45.673147
24098,CAINC1-1,41031,2018,Thousands of dollars,3,"830,889",Jefferson,OR,97352,44.736025,-123.02553,-8,1,44.736025
24108,CAINC1-1,41047,2018,Thousands of dollars,3,"15,005,203",Marion,OR,97359,44.984465,-122.457024,-8,1,44.984465
24118,CAINC1-1,41057,2018,Thousands of dollars,3,"1,185,998",Tillamook,OR,97141,45.459109000000005,-123.80389,-8,1,45.459109000000005
24128,CAINC1-1,41059,2018,Thousands of dollars,3,"3,145,236",Umatilla,OR,97882,45.915993,-119.33008000000001,-8,1,45.915993
24138,CAINC1-1,41061,2018,Thousands of dollars,3,"1,091,361",Union,OR,97883,45.201699,-117.83083,-8,1,45.201699
24148,CAINC1-1,41063,2018,Thousands of dollars,3,"317,138",Wallowa,OR,97885,45.568843,-117.52645,-8,1,45.568843
24158,CAINC1-1,41065,2018,Thousands of dollars,3,"1,140,822",Wasco,OR,97065,45.585405,-120.69233999999999,-8,1,45.585405
24168,CAINC1-1,41069,2018,Thousands of dollars,3,"50,039",Wheeler,OR,97147,45.688054,-123.8842,-8,1,45.688054
24178,CAINC1-1,41071,2018,Thousands of dollars,3,"4,876,539",Yamhill,OR,97148,45.352399,-123.22502,-8,1,45.352399
24188,CAINC1-1,42007,2018,Thousands of dollars,3,"8,032,448",Beaver,PA,15009,40.695281,-80.3299,-5,1,40.695281
24198,CAINC1-1,42009,2018,Thousands of dollars,3,"2,017,863",Bedford,PA,15522,39.998096000000004,-78.52204,-5,1,39.998096000000004
24208,CAINC1-1,42015,2018,Thousands of dollars,3,"2,492,049",Bradford,PA,16701,41.943791,-78.65448,-5,1,41.943791
24234,CAINC1-1,42019,2018,Thousands of dollars,3,"10,938,035",Butler,PA,16003,40.921145,-79.92758,-5,1,40.921145
24256,CAINC1-1,42029,2018,Thousands of dollars,3,"44,068,739",Chester,PA,19016,39.934047,-75.405987,-5,1,39.934047
24268,CAINC1-1,42031,2018,Thousands of dollars,3,"1,587,869",Clarion,PA,16214,41.199396,-79.37196,-5,1,41.199396
24278,CAINC1-1,42033,2018,Thousands of dollars,3,"3,563,944",Clearfield,PA,16830,41.026239000000004,-78.43838000000001,-5,1,41.026239000000004
24288,CAINC1-1,42035,2018,Thousands of dollars,3,"1,525,731",Clinton,PA,15026,40.508376,-80.35953,-5,1,40.508376
24306,CAINC1-1,42037,2018,Thousands of dollars,3,"2,763,577",Columbia,PA,17512,40.037682000000004,-76.49011,-5,1,40.037682000000004
24318,CAINC1-1,42043,2018,Thousands of dollars,3,"14,149,726",Dauphin,PA,17018,40.385622999999995,-76.92331999999999,-5,1,40.385622999999995
24560,CAINC1-1,42049,2018,Thousands of dollars,3,"12,229,735",Erie,PA,16511,42.156157,-80.01686,-5,1,42.156157
24628,CAINC1-1,42055,2018,Thousands of dollars,3,"7,156,703",Franklin,PA,16323,41.407365999999996,-79.83921,-5,1,41.407365999999996
24646,CAINC1-1,42061,2018,Thousands of dollars,3,"1,723,279",Huntingdon,PA,16654,40.402522999999995,-77.966977,-5,1,40.402522999999995
24666,CAINC1-1,42063,2018,Thousands of dollars,3,"3,377,934",Indiana,PA,15705,40.640031,-79.12944499999999,-5,1,40.640031
24678,CAINC1-1,42065,2018,Thousands of dollars,3,"1,933,606",Jefferson,PA,15344,39.92757,-80.05490999999999,-5,1,39.92757
24752,CAINC1-1,42071,2018,Thousands of dollars,3,"28,608,117",Lancaster,PA,17603,40.03263,-76.33328,-5,1,40.03263
24778,CAINC1-1,42073,2018,Thousands of dollars,3,"3,764,223",Lawrence,PA,15055,40.304019,-80.12246,-5,1,40.304019
24796,CAINC1-1,42075,2018,Thousands of dollars,3,"6,721,612",Lebanon,PA,17042,40.31977,-76.42344,-5,1,40.31977
24808,CAINC1-1,42079,2018,Thousands of dollars,3,"14,313,453",Luzerne,PA,18709,41.28328,-75.89369,-5,1,41.28328
24818,CAINC1-1,42083,2018,Thousands of dollars,3,"1,808,209",McKean,PA,16426,41.992528,-80.14448,-5,1,41.992528
24828,CAINC1-1,42085,2018,Thousands of dollars,3,"4,697,165",Mercer,PA,16137,41.234590999999995,-80.2364,-5,1,41.234590999999995
24838,CAINC1-1,42087,2018,Thousands of dollars,3,"1,818,676",Mifflin,PA,17058,40.53526,-77.46457,-5,1,40.53526
24848,CAINC1-1,42091,2018,Thousands of dollars,3,"65,369,508",Montgomery,PA,17752,41.173254,-76.88449,-5,1,41.173254
24858,CAINC1-1,42095,2018,Thousands of dollars,3,"16,661,222",Northampton,PA,18067,40.693818,-75.48697,-5,1,40.693818
24868,CAINC1-1,42097,2018,Thousands of dollars,3,"3,811,596",Northumberland,PA,17857,40.899361,-76.78947,-5,1,40.899361
24886,CAINC1-1,42099,2018,Thousands of dollars,3,"2,061,834",Perry,PA,15493,40.091654999999996,-79.718512,-5,1,40.091654999999996
25562,CAINC1-1,42101,2018,Thousands of dollars,3,"87,820,540",Philadelphia,PA,19019,40.001811,-75.11787,-5,1,40.001811
25738,CAINC1-1,42105,2018,Thousands of dollars,3,"732,463",Potter,PA,16815,40.771122,-77.65826700000001,-5,1,40.771122
25748,CAINC1-1,42107,2018,Thousands of dollars,3,"6,024,466",Schuylkill,PA,19853,40.088156,-75.480887,-5,1,40.088156
25766,CAINC1-1,42111,2018,Thousands of dollars,3,"3,060,085",Somerset,PA,15501,40.02847,-79.1105,-5,1,40.02847
25778,CAINC1-1,42115,2018,Thousands of dollars,3,"1,819,959",Susquehanna,PA,18847,41.944334000000005,-75.57240999999999,-5,1,41.944334000000005
25788,CAINC1-1,42117,2018,Thousands of dollars,3,"1,630,781",Tioga,PA,16946,41.924013,-77.14224,-5,1,41.924013
25798,CAINC1-1,42121,2018,Thousands of dollars,3,"2,148,913",Venango,PA,16440,41.774575,-80.1145,-5,1,41.774575
25824,CAINC1-1,42123,2018,Thousands of dollars,3,"1,657,629",Warren,PA,16367,41.811682,-79.26432199999999,-5,1,41.811682
25838,CAINC1-1,42125,2018,Thousands of dollars,3,"12,067,229",Washington,PA,15301,40.170663,-80.25185,-5,1,40.170663
25872,CAINC1-1,42127,2018,Thousands of dollars,3,"2,241,090",Wayne,PA,19080,40.043201,-75.357678,-5,1,40.043201
25888,CAINC1-1,42131,2018,Thousands of dollars,3,"1,231,438",Wyoming,PA,18644,41.31943,-75.85208,-5,1,41.31943
25954,CAINC1-1,42133,2018,Thousands of dollars,3,"22,342,240",York,PA,17403,39.952197999999996,-76.71328000000001,-5,1,39.952197999999996
25978,CAINC1-1,44001,2018,Thousands of dollars,3,"3,720,180",Bristol,RI,2809,41.6842,-71.26866,-5,1,41.6842
25996,CAINC1-1,44005,2018,Thousands of dollars,3,"5,652,822",Newport,RI,2840,41.488002,-71.31262,-5,1,41.488002
26104,CAINC1-1,44007,2018,Thousands of dollars,3,"30,404,264",Providence,RI,2901,41.82275,-71.414451,-5,1,41.82275
26138,CAINC1-1,45001,2018,Thousands of dollars,3,"830,005",Abbeville,SC,29620,34.189811999999996,-82.41245,-5,1,34.189811999999996
26188,CAINC1-1,45003,2018,Thousands of dollars,3,"7,236,010",Aiken,SC,29804,33.537729999999996,-81.599891,-5,1,33.537729999999996
26208,CAINC1-1,45005,2018,Thousands of dollars,3,"290,379",Allendale,SC,29810,33.010040999999994,-81.33069,-5,1,33.010040999999994
26258,CAINC1-1,45007,2018,Thousands of dollars,3,"8,007,522",Anderson,SC,29621,34.523657,-82.62509,-5,1,34.523657
26278,CAINC1-1,45009,2018,Thousands of dollars,3,"479,517",Bamberg,SC,29003,33.272026000000004,-81.03203,-5,1,33.272026000000004
26288,CAINC1-1,45011,2018,Thousands of dollars,3,"716,509",Barnwell,SC,29812,33.226172,-81.36031,-5,1,33.226172
26346,CAINC1-1,45013,2018,Thousands of dollars,3,"10,813,382",Beaufort,SC,29902,32.421594,-80.67505,-5,1,32.421594
26512,CAINC1-1,45019,2018,Thousands of dollars,3,"25,019,103",Charleston,SC,29422,32.84885,-79.85773,-5,1,32.84885
26558,CAINC1-1,45023,2018,Thousands of dollars,3,"1,092,296",Chester,SC,29706,34.720597,-81.21429,-5,1,34.720597
26568,CAINC1-1,45025,2018,Thousands of dollars,3,"1,431,481",Chesterfield,SC,29709,34.720306,-80.09371,-5,1,34.720306
26586,CAINC1-1,45031,2018,Thousands of dollars,3,"2,510,214",Darlington,SC,29540,34.388055,-79.89135,-5,1,34.388055
26598,CAINC1-1,45033,2018,Thousands of dollars,3,"871,455",Dillon,SC,29536,34.413907,-79.36511999999999,-5,1,34.413907
26608,CAINC1-1,45035,2018,Thousands of dollars,3,"6,304,617",Dorchester,SC,29437,33.144807,-80.41593,-5,1,33.144807
26618,CAINC1-1,45037,2018,Thousands of dollars,3,"968,856",Edgefield,SC,29824,33.819096,-81.95036,-5,1,33.819096
26668,CAINC1-1,45041,2018,Thousands of dollars,3,"5,813,911",Florence,SC,29505,34.142119,-79.74311,-5,1,34.142119
26696,CAINC1-1,45043,2018,Thousands of dollars,3,"2,961,369",Georgetown,SC,29442,33.403693,-79.226361,-5,1,33.403693
26844,CAINC1-1,45045,2018,Thousands of dollars,3,"25,010,948",Greenville,SC,29612,34.849745,-82.453779,-5,1,34.849745
26912,CAINC1-1,45047,2018,Thousands of dollars,3,"2,613,799",Greenwood,SC,29649,34.225871999999995,-82.15614000000001,-5,1,34.225871999999995
26936,CAINC1-1,45049,2018,Thousands of dollars,3,"636,293",Hampton,SC,29924,32.868065,-81.10998000000001,-5,1,32.868065
26948,CAINC1-1,45055,2018,Thousands of dollars,3,"2,731,367",Kershaw,SC,29067,34.545825,-80.54807,-5,1,34.545825
26974,CAINC1-1,45057,2018,Thousands of dollars,3,"4,856,460",Lancaster,SC,29720,34.729073,-80.76005,-5,1,34.729073
26988,CAINC1-1,45059,2018,Thousands of dollars,3,"2,317,518",Laurens,SC,29360,34.503167,-82.02271,-5,1,34.503167
27014,CAINC1-1,45063,2018,Thousands of dollars,3,"13,676,310",Lexington,SC,29072,33.991362,-81.25046999999999,-5,1,33.991362
27044,CAINC1-1,45065,2018,Thousands of dollars,3,"368,716",McCormick,SC,29899,33.83562,-82.319983,-5,1,33.83562
27058,CAINC1-1,45067,2018,Thousands of dollars,3,"982,581",Marion,SC,29571,34.164094,-79.396,-5,1,34.164094
27068,CAINC1-1,45071,2018,Thousands of dollars,3,"1,458,744",Newberry,SC,29108,34.282877,-81.61641,-5,1,34.282877
27102,CAINC1-1,45075,2018,Thousands of dollars,3,"2,980,245",Orangeburg,SC,29118,33.548282,-80.88513,-5,1,33.548282
27118,CAINC1-1,45077,2018,Thousands of dollars,3,"4,816,900",Pickens,SC,29671,34.912476,-82.71136,-5,1,34.912476
27128,CAINC1-1,45079,2018,Thousands of dollars,3,"18,868,466",Richland,SC,29675,34.764076,-83.088332,-5,1,34.764076
27138,CAINC1-1,45081,2018,Thousands of dollars,3,"682,855",Saluda,SC,29138,34.029635,-81.77579,-5,1,34.029635
27220,CAINC1-1,45083,2018,Thousands of dollars,3,"13,525,267",Spartanburg,SC,29304,34.916625,-81.863874,-5,1,34.916625
27272,CAINC1-1,45085,2018,Thousands of dollars,3,"4,109,063",Sumter,SC,29154,33.899155,-80.43433,-5,1,33.899155
27288,CAINC1-1,45087,2018,Thousands of dollars,3,"904,153",Union,SC,29379,34.714045,-81.60495999999999,-5,1,34.714045
27298,CAINC1-1,45091,2018,Thousands of dollars,3,"12,870,610",York,SC,29745,35.005981,-81.21176,-5,1,35.005981
27308,CAINC1-1,46003,2018,Thousands of dollars,3,"107,928",Aurora,SD,57002,44.287058,-96.67784,-6,1,44.287058
27326,CAINC1-1,46011,2018,Thousands of dollars,3,"1,622,445",Brookings,SD,57007,44.369696000000005,-96.790705,-6,1,44.369696000000005
27338,CAINC1-1,46017,2018,Thousands of dollars,3,"47,085",Buffalo,SD,57720,45.547869,-103.58054,-7,1,45.547869
27348,CAINC1-1,46025,2018,Thousands of dollars,3,"179,771",Clark,SD,57225,44.877579,-97.74574,-6,1,44.877579
27358,CAINC1-1,46033,2018,Thousands of dollars,3,"424,301",Custer,SD,57730,43.789695,-103.63631,-7,1,43.789695
27368,CAINC1-1,46053,2018,Thousands of dollars,3,"186,436",Gregory,SD,57533,43.229236,-99.42096,-6,1,43.229236
27378,CAINC1-1,46095,2018,Thousands of dollars,3,"63,729",Mellette,SD,57461,45.152388,-98.42497,-6,1,45.152388
27388,CAINC1-1,46123,2018,Thousands of dollars,3,"279,869",Tripp,SD,57376,43.220164000000004,-97.94615999999999,-6,1,43.220164000000004
27406,CAINC1-1,46135,2018,Thousands of dollars,3,"1,133,023",Yankton,SD,57078,42.888538,-97.40958,-6,1,42.888538
27418,CAINC1-1,47005,2018,Thousands of dollars,3,"543,978",Benton,TN,37307,35.172376,-84.63913000000001,-5,1,35.172376
27428,CAINC1-1,47039,2018,Thousands of dollars,3,"484,006",Decatur,TN,37322,35.503723,-84.80741,-5,1,35.503723
27446,CAINC1-1,47043,2018,Thousands of dollars,3,"2,166,281",Dickson,TN,37055,36.065779,-87.40831,-6,1,36.065779
27458,CAINC1-1,47045,2018,Thousands of dollars,3,"1,506,967",Dyer,TN,38330,36.073575,-89.01767,-6,1,36.073575
27500,CAINC1-1,47051,2018,Thousands of dollars,3,"1,633,516",Franklin,TN,37065,35.895084999999995,-86.92141600000001,-6,1,35.895084999999995
27518,CAINC1-1,47053,2018,Thousands of dollars,3,"1,870,395",Gibson,TN,38338,35.870849,-88.846372,-6,1,35.870849
27528,CAINC1-1,47077,2018,Thousands of dollars,3,"998,335",Henderson,TN,38340,35.414454,-88.66118,-6,1,35.414454
27538,CAINC1-1,47079,2018,Thousands of dollars,3,"1,317,429",Henry,TN,38231,36.210846999999994,-88.42518000000001,-6,1,36.210846999999994
27548,CAINC1-1,47081,2018,Thousands of dollars,3,"816,599",Hickman,TN,38567,36.140473,-85.91072,-6,1,36.140473
27598,CAINC1-1,47087,2018,Thousands of dollars,3,"361,866",Jackson,TN,38308,35.612404999999995,-88.841225,-6,1,35.612404999999995
27618,CAINC1-1,47105,2018,Thousands of dollars,3,"2,591,063",Loudon,TN,37774,35.725969,-84.33069,-5,1,35.725969
27628,CAINC1-1,47111,2018,Thousands of dollars,3,"797,610",Macon,TN,38048,35.150659999999995,-89.481362,-6,1,35.150659999999995
27646,CAINC1-1,47113,2018,Thousands of dollars,3,"4,161,721",Madison,TN,37116,36.186605,-86.785248,-6,1,36.186605
27658,CAINC1-1,47123,2018,Thousands of dollars,3,"1,559,344",Monroe,TN,38573,36.480151,-85.20656,-6,1,36.480151
27668,CAINC1-1,47131,2018,Thousands of dollars,3,"1,240,118",Obion,TN,38240,36.253678,-89.25364,-6,1,36.253678
27678,CAINC1-1,47149,2018,Thousands of dollars,3,"13,408,622",Rutherford,TN,38369,36.12836,-88.98134,-6,1,36.12836
27688,CAINC1-1,47153,2018,Thousands of dollars,3,"561,195",Sequatchie,TN,37374,35.19174,-85.64149,-6,1,35.19174
27698,CAINC1-1,47161,2018,Thousands of dollars,3,"539,585",Stewart,TN,37175,36.316041999999996,-87.89028,-6,1,36.316041999999996
27708,CAINC1-1,47167,2018,Thousands of dollars,3,"2,401,800",Tipton,TN,38071,35.414319,-89.818781,-6,1,35.414319
27718,CAINC1-1,47171,2018,Thousands of dollars,3,"645,521",Unicoi,TN,37692,36.20493,-82.31214,-5,1,36.20493
27728,CAINC1-1,48001,2018,Thousands of dollars,3,"1,992,181",Anderson,TX,77830,30.536223,-96.0229,-6,1,30.536223
27738,CAINC1-1,48003,2018,Thousands of dollars,3,"914,535",Andrews,TX,79714,32.345871,-102.56766999999999,-6,1,32.345871
27748,CAINC1-1,48011,2018,Thousands of dollars,3,"98,086",Armstrong,TX,78338,26.870238,-97.77433,-6,1,26.870238
27758,CAINC1-1,48013,2018,Thousands of dollars,3,"1,846,129",Atascosa,TX,78002,29.288108,-98.72878,-6,1,29.288108
28424,CAINC1-1,48015,2018,Thousands of dollars,3,"1,481,738",Austin,TX,78789,30.326373999999998,-97.77125799999999,-6,1,30.326373999999998
28598,CAINC1-1,48017,2018,Thousands of dollars,3,"305,785",Bailey,TX,75413,33.43515,-96.16671,-6,1,33.43515
28608,CAINC1-1,48019,2018,Thousands of dollars,3,"995,195",Bandera,TX,78003,29.718152000000003,-99.06605,-6,1,29.718152000000003
28618,CAINC1-1,48021,2018,Thousands of dollars,3,"3,175,953",Bastrop,TX,78602,30.120442999999998,-97.30991,-6,1,30.120442999999998
28628,CAINC1-1,48031,2018,Thousands of dollars,3,"619,541",Blanco,TX,78606,30.096854999999998,-98.43411,-6,1,30.096854999999998
28638,CAINC1-1,48037,2018,Thousands of dollars,3,"3,751,991",Bowie,TX,76230,33.54007,-97.88575,-6,1,33.54007
28648,CAINC1-1,48039,2018,Thousands of dollars,3,"17,243,137",Brazoria,TX,77422,29.011241,-95.58071,-6,1,29.011241
28658,CAINC1-1,48045,2018,Thousands of dollars,3,"67,600",Briscoe,TX,79011,35.662917,-100.21999,-6,1,35.662917
28676,CAINC1-1,48051,2018,Thousands of dollars,3,"813,705",Burleson,TX,76028,32.535841,-97.30681,-6,1,32.535841
28688,CAINC1-1,48053,2018,Thousands of dollars,3,"2,282,920",Burnet,TX,78611,30.767327,-98.30109,-6,1,30.767327
28698,CAINC1-1,48055,2018,Thousands of dollars,3,"1,427,474",Caldwell,TX,77836,30.517098999999998,-96.67246999999999,-6,1,30.517098999999998
28708,CAINC1-1,48061,2018,Thousands of dollars,3,"12,216,651",Cameron,TX,76520,30.851922,-96.96323000000001,-6,1,30.851922
28718,CAINC1-1,48073,2018,Thousands of dollars,3,"1,820,425",Cherokee,TX,76832,30.98609,-98.67201,-6,1,30.98609
28728,CAINC1-1,48075,2018,Thousands of dollars,3,"220,068",Childress,TX,79201,34.385870000000004,-100.28401,-6,1,34.385870000000004
28738,CAINC1-1,48077,2018,Thousands of dollars,3,"443,111",Clay,TX,77839,30.341403000000003,-96.526669,-6,1,30.341403000000003
28748,CAINC1-1,48083,2018,Thousands of dollars,3,"338,875",Coleman,TX,76834,31.847973,-99.45514,-6,1,31.847973
28758,CAINC1-1,48093,2018,Thousands of dollars,3,"552,590",Comanche,TX,76442,31.906683,-98.60618000000001,-6,1,31.906683
28768,CAINC1-1,48103,2018,Thousands of dollars,3,"231,136",Crane,TX,79731,31.389079,-102.35059,-6,1,31.389079
28778,CAINC1-1,48105,2018,Thousands of dollars,3,"145,222",Crockett,TX,75835,31.315837,-95.47393000000001,-6,1,31.315837
28788,CAINC1-1,48107,2018,Thousands of dollars,3,"210,235",Crosby,TX,77532,29.920121,-95.07327,-6,1,29.920121
